{
"type": "FeatureCollection",
"name": "jalisco_loc_monto",
"crs": { "type": "name", "properties": { "name": "urn:ogc:def:crs:OGC:1.3:CRS84" } },
"features": [
{ "type": "Feature", "properties": { "fid": 1, "NO": 1, "ENTIDAD": "JALISCO", "MUNICIPIO": "AUTLAN DE NAVARRO", "PUEBLO INDIGENA O AFROMEXICANO": "NAHUA", "LOCALIDAD": "CHIQUIHUITLAN", "INEGI_NUM": 140150028, "TIPO DE ASENTAMIENTO": "COMUNIDAD INDIGENA", "NOMBRE": "CHIQUIHUITLÁN Y AGUA SALADA", "MONTO ASIGNADO (PESOS)": 508554, "LATITUD": 19.768961, "LONGITUD": -104.414048 }, "geometry": { "type": "Point", "coordinates": [ -104.414048, 19.768961 ] } },
{ "type": "Feature", "properties": { "fid": 2, "NO": 2, "ENTIDAD": "JALISCO", "MUNICIPIO": "CHIMALTITAN", "PUEBLO INDIGENA O AFROMEXICANO": "TEPEHUANO DEL \nSUR", "LOCALIDAD": "SAN JUAN DE LOS POTREROS", "INEGI_NUM": 140310066, "TIPO DE ASENTAMIENTO": "COMUNIDAD INDIGENA", "NOMBRE": "SAN JUAN DE LOS POTREROS", "MONTO ASIGNADO (PESOS)": 1424771, "LATITUD": 21.704908, "LONGITUD": -103.597682 }, "geometry": { "type": "Point", "coordinates": [ -103.597682, 21.704908 ] } },
{ "type": "Feature", "properties": { "fid": 3, "NO": 3, "ENTIDAD": "JALISCO", "MUNICIPIO": "CHIMALTITAN", "PUEBLO INDIGENA O AFROMEXICANO": "TEPEHUANO DEL \nSUR", "LOCALIDAD": "TEPIZUAC", "INEGI_NUM": 140310069, "TIPO DE ASENTAMIENTO": "COMUNIDAD INDIGENA", "NOMBRE": "TEPIZOAC", "MONTO ASIGNADO (PESOS)": 2196880, "LATITUD": 21.624915, "LONGITUD": -103.638176 }, "geometry": { "type": "Point", "coordinates": [ -103.638176, 21.624915 ] } },
{ "type": "Feature", "properties": { "fid": 4, "NO": 4, "ENTIDAD": "JALISCO", "MUNICIPIO": "CIHUATLAN", "PUEBLO INDIGENA O AFROMEXICANO": "NAHUA", "LOCALIDAD": "EL CARRIZAL", "INEGI_NUM": 140220059, "TIPO DE ASENTAMIENTO": "COMUNIDAD INDIGENA", "NOMBRE": "CIHUATLÁN", "MONTO ASIGNADO (PESOS)": 112124, "LATITUD": 19.333896, "LONGITUD": -104.52728 }, "geometry": { "type": "Point", "coordinates": [ -104.52728, 19.333896 ] } },
{ "type": "Feature", "properties": { "fid": 5, "NO": 5, "ENTIDAD": "JALISCO", "MUNICIPIO": "CUAUTITLAN DE GARCIA BARRAGAN", "PUEBLO INDIGENA O AFROMEXICANO": "NAHUA", "LOCALIDAD": "AYOTITLAN", "INEGI_NUM": 140270012, "TIPO DE ASENTAMIENTO": "COMUNIDAD INDIGENA", "NOMBRE": "AYOTITLAN", "MONTO ASIGNADO (PESOS)": 11457222, "LATITUD": 19.47041, "LONGITUD": -104.185774 }, "geometry": { "type": "Point", "coordinates": [ -104.185774, 19.47041 ] } },
{ "type": "Feature", "properties": { "fid": 6, "NO": 6, "ENTIDAD": "JALISCO", "MUNICIPIO": "CUAUTITLAN DE GARCIA BARRAGAN", "PUEBLO INDIGENA O AFROMEXICANO": "NAHUA", "LOCALIDAD": "CHACALA", "INEGI_NUM": 140270031, "TIPO DE ASENTAMIENTO": "COMUNIDAD INDIGENA", "NOMBRE": "CHACALA", "MONTO ASIGNADO (PESOS)": 3157355, "LATITUD": 19.326388, "LONGITUD": -104.283611 }, "geometry": { "type": "Point", "coordinates": [ -104.283611, 19.326388 ] } },
{ "type": "Feature", "properties": { "fid": 7, "NO": 7, "ENTIDAD": "JALISCO", "MUNICIPIO": "CUAUTITLAN DE GARCIA BARRAGAN", "PUEBLO INDIGENA O AFROMEXICANO": "NAHUA", "LOCALIDAD": "CUZALAPA", "INEGI_NUM": 140270030, "TIPO DE ASENTAMIENTO": "COMUNIDAD INDIGENA", "NOMBRE": "CUZALAPA", "MONTO ASIGNADO (PESOS)": 2705601, "LATITUD": 19.497192, "LONGITUD": -104.315155 }, "geometry": { "type": "Point", "coordinates": [ -104.315155, 19.497192 ] } },
{ "type": "Feature", "properties": { "fid": 8, "NO": 8, "ENTIDAD": "JALISCO", "MUNICIPIO": "HUEJUQUILLA EL ALTO", "PUEBLO INDIGENA O AFROMEXICANO": "WIXÁRIKA \n(HUICHOL)", "LOCALIDAD": "LA COFRADIA", "INEGI_NUM": 140420013, "TIPO DE ASENTAMIENTO": "COMUNIDAD INDIGENA", "NOMBRE": "EMMANUEL", "MONTO ASIGNADO (PESOS)": 374035, "LATITUD": 22.613816, "LONGITUD": -103.924185 }, "geometry": { "type": "Point", "coordinates": [ -103.924185, 22.613816 ] } },
{ "type": "Feature", "properties": { "fid": 9, "NO": 9, "ENTIDAD": "JALISCO", "MUNICIPIO": "HUEJUQUILLA EL ALTO", "PUEBLO INDIGENA O AFROMEXICANO": "WIXÁRIKA \n(HUICHOL)", "LOCALIDAD": "TENZOMPA", "INEGI_NUM": 140420047, "TIPO DE ASENTAMIENTO": "COMUNIDAD INDIGENA", "NOMBRE": "TENZOMPA", "MONTO ASIGNADO (PESOS)": 2229916, "LATITUD": 22.371445, "LONGITUD": -103.926988 }, "geometry": { "type": "Point", "coordinates": [ -103.926988, 22.371445 ] } },
{ "type": "Feature", "properties": { "fid": 10, "NO": 10, "ENTIDAD": "JALISCO", "MUNICIPIO": "LA HUERTA", "PUEBLO INDIGENA O AFROMEXICANO": "NAHUA", "LOCALIDAD": "MAZATAN", "INEGI_NUM": 140430063, "TIPO DE ASENTAMIENTO": "COMUNIDAD INDIGENA", "NOMBRE": "MAZATAN", "MONTO ASIGNADO (PESOS)": 932230, "LATITUD": 19.512472, "LONGITUD": -104.679161 }, "geometry": { "type": "Point", "coordinates": [ -104.679161, 19.512472 ] } },
{ "type": "Feature", "properties": { "fid": 11, "NO": 11, "ENTIDAD": "JALISCO", "MUNICIPIO": "LAGOS DE MORENO", "PUEBLO INDIGENA O AFROMEXICANO": "CHICHIMECO", "LOCALIDAD": "LAGOS DE MORENO", "INEGI_NUM": 140530001, "TIPO DE ASENTAMIENTO": "COMUNIDAD INDIGENA", "NOMBRE": "PUEBLO DE MOYA", "MONTO ASIGNADO (PESOS)": 1404705, "LATITUD": 21.356389, "LONGITUD": -101.929166 }, "geometry": { "type": "Point", "coordinates": [ -101.929166, 21.356389 ] } },
{ "type": "Feature", "properties": { "fid": 12, "NO": 12, "ENTIDAD": "JALISCO", "MUNICIPIO": "LAGOS DE MORENO", "PUEBLO INDIGENA O AFROMEXICANO": "CHICHIMECO", "LOCALIDAD": "LAGOS DE MORENO", "INEGI_NUM": 140530001, "TIPO DE ASENTAMIENTO": "COMUNIDAD INDIGENA", "NOMBRE": "SAN JUAN DE LA LAGUNA", "MONTO ASIGNADO (PESOS)": 4494141, "LATITUD": 21.356389, "LONGITUD": -101.929166 }, "geometry": { "type": "Point", "coordinates": [ -101.929166, 21.356389 ] } },
{ "type": "Feature", "properties": { "fid": 13, "NO": 13, "ENTIDAD": "JALISCO", "MUNICIPIO": "MEZQUITIC", "PUEBLO INDIGENA O AFROMEXICANO": "WIXÁRIKA \n(HUICHOL)", "LOCALIDAD": "SAN ANDRES COHAMIATA", "INEGI_NUM": 140610190, "TIPO DE ASENTAMIENTO": "COMUNIDAD INDIGENA", "NOMBRE": "SAN ANDRÉS COHAMIATA", "MONTO ASIGNADO (PESOS)": 11537246, "LATITUD": 22.189173, "LONGITUD": -104.24255 }, "geometry": { "type": "Point", "coordinates": [ -104.24255, 22.189173 ] } },
{ "type": "Feature", "properties": { "fid": 14, "NO": 14, "ENTIDAD": "JALISCO", "MUNICIPIO": "MEZQUITIC", "PUEBLO INDIGENA O AFROMEXICANO": "WIXÁRIKA \n(HUICHOL)", "LOCALIDAD": "SAN SEBASTIAN TEPONAHUAXTLAN", "INEGI_NUM": 140610201, "TIPO DE ASENTAMIENTO": "COMUNIDAD INDIGENA", "NOMBRE": "SAN SEBASTIÁN TEPONAHUAXTLÁN Y SU ANEXO \nTUXPAN", "MONTO ASIGNADO (PESOS)": 15568263, "LATITUD": 22.081452, "LONGITUD": -104.062526 }, "geometry": { "type": "Point", "coordinates": [ -104.062526, 22.081452 ] } },
{ "type": "Feature", "properties": { "fid": 15, "NO": 15, "ENTIDAD": "JALISCO", "MUNICIPIO": "MEZQUITIC", "PUEBLO INDIGENA O AFROMEXICANO": "WIXÁRIKA \n(HUICHOL)", "LOCALIDAD": "SANTA CATARINA CUEXCOMATITLAN", "INEGI_NUM": 140610202, "TIPO DE ASENTAMIENTO": "COMUNIDAD INDIGENA", "NOMBRE": "SANTA CATARINA CUEXCOMATITLÁN", "MONTO ASIGNADO (PESOS)": 4896540, "LATITUD": 22.155216, "LONGITUD": -104.109925 }, "geometry": { "type": "Point", "coordinates": [ -104.109925, 22.155216 ] } },
{ "type": "Feature", "properties": { "fid": 16, "NO": 16, "ENTIDAD": "JALISCO", "MUNICIPIO": "PONCITLAN", "PUEBLO INDIGENA O AFROMEXICANO": "COCA", "LOCALIDAD": "MEZCALA", "INEGI_NUM": 140660019, "TIPO DE ASENTAMIENTO": "COMUNIDAD INDIGENA", "NOMBRE": "MEZCALA", "MONTO ASIGNADO (PESOS)": 416640, "LATITUD": 20.335, "LONGITUD": -103.016944 }, "geometry": { "type": "Point", "coordinates": [ -103.016944, 20.335 ] } },
{ "type": "Feature", "properties": { "fid": 17, "NO": 17, "ENTIDAD": "JALISCO", "MUNICIPIO": "TOLIMAN", "PUEBLO INDIGENA O AFROMEXICANO": "NAHUA", "LOCALIDAD": "TEUTLAN", "INEGI_NUM": 140990029, "TIPO DE ASENTAMIENTO": "COMUNIDAD INDIGENA", "NOMBRE": "TEUTLÁN", "MONTO ASIGNADO (PESOS)": 783639, "LATITUD": 19.576021, "LONGITUD": -103.912615 }, "geometry": { "type": "Point", "coordinates": [ -103.912615, 19.576021 ] } },
{ "type": "Feature", "properties": { "fid": 18, "NO": 18, "ENTIDAD": "JALISCO", "MUNICIPIO": "TUXPAN", "PUEBLO INDIGENA O AFROMEXICANO": "NAHUA", "LOCALIDAD": "EL NUEVO POBLADO", "INEGI_NUM": 141080066, "TIPO DE ASENTAMIENTO": "COMUNIDAD INDIGENA", "NOMBRE": "NUEVO POBLADO", "MONTO ASIGNADO (PESOS)": 359485, "LATITUD": 19.529483, "LONGITUD": -103.401632 }, "geometry": { "type": "Point", "coordinates": [ -103.401632, 19.529483 ] } },
{ "type": "Feature", "properties": { "fid": 19, "NO": 19, "ENTIDAD": "JALISCO", "MUNICIPIO": "TUXPAN", "PUEBLO INDIGENA O AFROMEXICANO": "NAHUA", "LOCALIDAD": "LOS LAURELES", "INEGI_NUM": 141080024, "TIPO DE ASENTAMIENTO": "COMUNIDAD INDIGENA", "NOMBRE": "LOS LAURELES", "MONTO ASIGNADO (PESOS)": 494812, "LATITUD": 19.481515, "LONGITUD": -103.370922 }, "geometry": { "type": "Point", "coordinates": [ -103.370922, 19.481515 ] } },
{ "type": "Feature", "properties": { "fid": 20, "NO": 20, "ENTIDAD": "JALISCO", "MUNICIPIO": "TUXPAN", "PUEBLO INDIGENA O AFROMEXICANO": "NAHUA", "LOCALIDAD": "PASO DE SAN JUAN", "INEGI_NUM": 141080037, "TIPO DE ASENTAMIENTO": "COMUNIDAD INDIGENA", "NOMBRE": "PASO DE SAN JUAN", "MONTO ASIGNADO (PESOS)": 118591, "LATITUD": 19.513843, "LONGITUD": -103.397398 }, "geometry": { "type": "Point", "coordinates": [ -103.397398, 19.513843 ] } },
{ "type": "Feature", "properties": { "fid": 21, "NO": 21, "ENTIDAD": "JALISCO", "MUNICIPIO": "TUXPAN", "PUEBLO INDIGENA O AFROMEXICANO": "NAHUA", "LOCALIDAD": "RANCHO NIÑO", "INEGI_NUM": 141080032, "TIPO DE ASENTAMIENTO": "COMUNIDAD INDIGENA", "NOMBRE": "RANCHO NIÑO", "MONTO ASIGNADO (PESOS)": 258199, "LATITUD": 19.504964, "LONGITUD": -103.375213 }, "geometry": { "type": "Point", "coordinates": [ -103.375213, 19.504964 ] } },
{ "type": "Feature", "properties": { "fid": 22, "NO": 22, "ENTIDAD": "JALISCO", "MUNICIPIO": "TUXPAN", "PUEBLO INDIGENA O AFROMEXICANO": "NAHUA", "LOCALIDAD": "SAN JUAN ESPANATICA", "INEGI_NUM": 141080046, "TIPO DE ASENTAMIENTO": "COMUNIDAD INDIGENA", "NOMBRE": "SAN JUAN ESPANATICA", "MONTO ASIGNADO (PESOS)": 1046359, "LATITUD": 19.497425, "LONGITUD": -103.401758 }, "geometry": { "type": "Point", "coordinates": [ -103.401758, 19.497425 ] } },
{ "type": "Feature", "properties": { "fid": 23, "NO": 23, "ENTIDAD": "JALISCO", "MUNICIPIO": "TUXPAN", "PUEBLO INDIGENA O AFROMEXICANO": "NAHUA", "LOCALIDAD": "SAN MIGUEL", "INEGI_NUM": 141080048, "TIPO DE ASENTAMIENTO": "COMUNIDAD INDIGENA", "NOMBRE": "SAN MIGUEL", "MONTO ASIGNADO (PESOS)": 116166, "LATITUD": 19.562803, "LONGITUD": -103.332047 }, "geometry": { "type": "Point", "coordinates": [ -103.332047, 19.562803 ] } },
{ "type": "Feature", "properties": { "fid": 24, "NO": 24, "ENTIDAD": "JALISCO", "MUNICIPIO": "TUXPAN", "PUEBLO INDIGENA O AFROMEXICANO": "NAHUA", "LOCALIDAD": "TUXPAN", "INEGI_NUM": 141080001, "TIPO DE ASENTAMIENTO": "COMUNIDAD INDIGENA", "NOMBRE": "TUXPAN", "MONTO ASIGNADO (PESOS)": 1002228, "LATITUD": 19.554444, "LONGITUD": -103.372222 }, "geometry": { "type": "Point", "coordinates": [ -103.372222, 19.554444 ] } },
{ "type": "Feature", "properties": { "fid": 25, "NO": 25, "ENTIDAD": "JALISCO", "MUNICIPIO": "VILLA GUERRERO", "PUEBLO INDIGENA O AFROMEXICANO": "PLURICULTURAL", "LOCALIDAD": "SAN LORENZO DE ATZQUELTAN", "INEGI_NUM": 141150008, "TIPO DE ASENTAMIENTO": "COMUNIDAD PLURICULTURAL", "NOMBRE": "SAN LORENZO DE AZQUELTAN", "MONTO ASIGNADO (PESOS)": 1451729, "LATITUD": 22.041717, "LONGITUD": -103.734746 }, "geometry": { "type": "Point", "coordinates": [ -103.734746, 22.041717 ] } },
{ "type": "Feature", "properties": { "fid": 26, "NO": 26, "ENTIDAD": "JALISCO", "MUNICIPIO": "VILLA PURIFICACION", "PUEBLO INDIGENA O AFROMEXICANO": "NAHUA", "LOCALIDAD": "JIROSTO", "INEGI_NUM": 140680057, "TIPO DE ASENTAMIENTO": "COMUNIDAD INDIGENA", "NOMBRE": "JIROSTO", "MONTO ASIGNADO (PESOS)": 1947855, "LATITUD": 19.756582, "LONGITUD": -104.750577 }, "geometry": { "type": "Point", "coordinates": [ -104.750577, 19.756582 ] } },
{ "type": "Feature", "properties": { "fid": 27, "NO": 27, "ENTIDAD": "JALISCO", "MUNICIPIO": "VILLA PURIFICACION", "PUEBLO INDIGENA O AFROMEXICANO": "NAHUA", "LOCALIDAD": "JOCOTLAN", "INEGI_NUM": 140680173, "TIPO DE ASENTAMIENTO": "COMUNIDAD INDIGENA", "NOMBRE": "JOCOTLAN", "MONTO ASIGNADO (PESOS)": 3219169, "LATITUD": 19.792656, "LONGITUD": -104.874465 }, "geometry": { "type": "Point", "coordinates": [ -104.874465, 19.792656 ] } },
{ "type": "Feature", "properties": { "fid": 28, "NO": 28, "ENTIDAD": "JALISCO", "MUNICIPIO": "ZAPOTITLAN DE VADILLO", "PUEBLO INDIGENA O AFROMEXICANO": "NAHUA", "LOCALIDAD": "MAZATAN", "INEGI_NUM": 141220023, "TIPO DE ASENTAMIENTO": "COMUNIDAD INDIGENA", "NOMBRE": "UNIÓN DE PUEBLOS Y COMUNIDADES \nINDÍGENAS NAHUA DE ZAPOTITLÁN DE VADILLO", "MONTO ASIGNADO (PESOS)": 5860307, "LATITUD": 19.456679, "LONGITUD": -103.824909 }, "geometry": { "type": "Point", "coordinates": [ -103.824909, 19.456679 ] } }
]
}
