{
"type": "FeatureCollection",
"name": "morelos_loc_monto",
"crs": { "type": "name", "properties": { "name": "urn:ogc:def:crs:OGC:1.3:CRS84" } },
"features": [
{ "type": "Feature", "properties": { "fid": 1, "NO": 1, "ENTIDAD": "MORELOS", "MUNICIPIO": "AMACUZAC", "PUEBLO\nINDIGENA O\nAFROMEXICANO": "NAHUA", "LOCALIDAD": "HUAJINTLAN", "CLAVE INEGI": 170010005, "TIPO DE\nASENTAMIENTO": "COMUNIDAD INDIGENA", "NOMBRE": "HUAJINTLAN", "MONTO\nASIGNADO\n(PESOS)": 2235798, "LATITUD": 18.60975, "LONGITUD": -99.424166 }, "geometry": { "type": "Point", "coordinates": [ -99.424166, 18.60975 ] } },
{ "type": "Feature", "properties": { "fid": 2, "NO": 2, "ENTIDAD": "MORELOS", "MUNICIPIO": "AXOCHIAPAN", "PUEBLO\nINDIGENA O\nAFROMEXICANO": "NAHUA", "LOCALIDAD": "ATLACAHUALOYA", "CLAVE INEGI": 170030003, "TIPO DE\nASENTAMIENTO": "COMUNIDAD INDIGENA", "NOMBRE": "ATLACAHUALOYA", "MONTO\nASIGNADO\n(PESOS)": 780735, "LATITUD": 18.540185, "LONGITUD": -98.729155 }, "geometry": { "type": "Point", "coordinates": [ -98.729155, 18.540185 ] } },
{ "type": "Feature", "properties": { "fid": 3, "NO": 3, "ENTIDAD": "MORELOS", "MUNICIPIO": "AXOCHIAPAN", "PUEBLO\nINDIGENA O\nAFROMEXICANO": "NAHUA", "LOCALIDAD": "AXOCHIAPAN", "CLAVE INEGI": 170030001, "TIPO DE\nASENTAMIENTO": "COMUNIDAD INDIGENA", "NOMBRE": "AXOCHIAPAN", "MONTO\nASIGNADO\n(PESOS)": 2235171, "LATITUD": 18.502406, "LONGITUD": -98.754079 }, "geometry": { "type": "Point", "coordinates": [ -98.754079, 18.502406 ] } },
{ "type": "Feature", "properties": { "fid": 4, "NO": 4, "ENTIDAD": "MORELOS", "MUNICIPIO": "AXOCHIAPAN", "PUEBLO\nINDIGENA O\nAFROMEXICANO": "NAHUA", "LOCALIDAD": "TELIXTAC", "CLAVE INEGI": 170030010, "TIPO DE\nASENTAMIENTO": "COMUNIDAD INDIGENA", "NOMBRE": "TELIXTAC", "MONTO\nASIGNADO\n(PESOS)": 316260, "LATITUD": 18.560444, "LONGITUD": -98.772757 }, "geometry": { "type": "Point", "coordinates": [ -98.772757, 18.560444 ] } },
{ "type": "Feature", "properties": { "fid": 5, "NO": 5, "ENTIDAD": "MORELOS", "MUNICIPIO": "AYALA", "PUEBLO\nINDIGENA O\nAFROMEXICANO": "NAHUA", "LOCALIDAD": "ANENECUILCO", "CLAVE INEGI": 170040004, "TIPO DE\nASENTAMIENTO": "COMUNIDAD INDIGENA", "NOMBRE": "ANENECUILCO", "MONTO\nASIGNADO\n(PESOS)": 397478, "LATITUD": 18.778012, "LONGITUD": -98.985129 }, "geometry": { "type": "Point", "coordinates": [ -98.985129, 18.778012 ] } },
{ "type": "Feature", "properties": { "fid": 6, "NO": 5, "ENTIDAD": "MORELOS", "MUNICIPIO": "AYALA", "PUEBLO\nINDIGENA O\nAFROMEXICANO": "NAHUA", "LOCALIDAD": "ANENECUILCO", "CLAVE INEGI": 170040004, "TIPO DE\nASENTAMIENTO": "COMUNIDAD INDIGENA", "NOMBRE": "ANENECUILCO", "MONTO\nASIGNADO\n(PESOS)": 397478, "LATITUD": 18.787951, "LONGITUD": -98.978245 }, "geometry": { "type": "Point", "coordinates": [ -98.978245, 18.787951 ] } },
{ "type": "Feature", "properties": { "fid": 7, "NO": 5, "ENTIDAD": "MORELOS", "MUNICIPIO": "AYALA", "PUEBLO\nINDIGENA O\nAFROMEXICANO": "NAHUA", "LOCALIDAD": "ANENECUILCO", "CLAVE INEGI": 170040004, "TIPO DE\nASENTAMIENTO": "COMUNIDAD INDIGENA", "NOMBRE": "ANENECUILCO", "MONTO\nASIGNADO\n(PESOS)": 397478, "LATITUD": 18.769506, "LONGITUD": -98.996447 }, "geometry": { "type": "Point", "coordinates": [ -98.996447, 18.769506 ] } },
{ "type": "Feature", "properties": { "fid": 8, "NO": 6, "ENTIDAD": "MORELOS", "MUNICIPIO": "COATETELCO", "PUEBLO\nINDIGENA O\nAFROMEXICANO": "NAHUA", "LOCALIDAD": "COATETELCO CENTRO", "CLAVE INEGI": 170340001, "TIPO DE\nASENTAMIENTO": "COMUNIDAD INDIGENA", "NOMBRE": "COATETELCO", "MONTO\nASIGNADO\n(PESOS)": 2086125, "LATITUD": 18.730485, "LONGITUD": -99.327057 }, "geometry": { "type": "Point", "coordinates": [ -99.327057, 18.730485 ] } },
{ "type": "Feature", "properties": { "fid": 9, "NO": 7, "ENTIDAD": "MORELOS", "MUNICIPIO": "CUAUTLA", "PUEBLO\nINDIGENA O\nAFROMEXICANO": "NAHUA", "LOCALIDAD": "CUAUTLA", "CLAVE INEGI": 170060001, "TIPO DE\nASENTAMIENTO": "COMUNIDAD INDIGENA", "NOMBRE": "DELEGACIÓN POLÍTICA MUNICIPAL INDÍGENA\nDE TETELCINGO", "MONTO\nASIGNADO\n(PESOS)": 1013455, "LATITUD": 18.812788, "LONGITUD": -98.955265 }, "geometry": { "type": "Point", "coordinates": [ -98.955265, 18.812788 ] } },
{ "type": "Feature", "properties": { "fid": 10, "NO": 8, "ENTIDAD": "MORELOS", "MUNICIPIO": "CUERNAVACA", "PUEBLO\nINDIGENA O\nAFROMEXICANO": "NAHUA", "LOCALIDAD": "BUENAVISTA DEL MONTE", "CLAVE INEGI": 170070044, "TIPO DE\nASENTAMIENTO": "COMUNIDAD INDIGENA", "NOMBRE": "BUENA VISTA DEL MONTE", "MONTO\nASIGNADO\n(PESOS)": 1002138, "LATITUD": 18.944637, "LONGITUD": -99.309702 }, "geometry": { "type": "Point", "coordinates": [ -99.309702, 18.944637 ] } },
{ "type": "Feature", "properties": { "fid": 11, "NO": 9, "ENTIDAD": "MORELOS", "MUNICIPIO": "CUERNAVACA", "PUEBLO\nINDIGENA O\nAFROMEXICANO": "NAHUA", "LOCALIDAD": "CUERNAVACA", "CLAVE INEGI": 170070001, "TIPO DE\nASENTAMIENTO": "COMUNIDAD INDIGENA", "NOMBRE": "TETELA DEL MONTE", "MONTO\nASIGNADO\n(PESOS)": 7990244, "LATITUD": 18.921782, "LONGITUD": -99.234897 }, "geometry": { "type": "Point", "coordinates": [ -99.234897, 18.921782 ] } },
{ "type": "Feature", "properties": { "fid": 12, "NO": 10, "ENTIDAD": "MORELOS", "MUNICIPIO": "CUERNAVACA", "PUEBLO\nINDIGENA O\nAFROMEXICANO": "NAHUA", "LOCALIDAD": "(SIN NOMBRE)", "CLAVE INEGI": 170070000, "TIPO DE\nASENTAMIENTO": "COMUNIDAD INDIGENA", "NOMBRE": "AHUATEPEC", "MONTO\nASIGNADO\n(PESOS)": 7200500, "LATITUD": 18.964593, "LONGITUD": -99.210475 }, "geometry": { "type": "Point", "coordinates": [ -99.210475, 18.964593 ] } },
{ "type": "Feature", "properties": { "fid": 13, "NO": 11, "ENTIDAD": "MORELOS", "MUNICIPIO": "CUERNAVACA", "PUEBLO\nINDIGENA O\nAFROMEXICANO": "NAHUA", "LOCALIDAD": "(SIN NOMBRE)", "CLAVE INEGI": 170070000, "TIPO DE\nASENTAMIENTO": "COMUNIDAD INDIGENA", "NOMBRE": "OCOTEPEC", "MONTO\nASIGNADO\n(PESOS)": 84639, "LATITUD": 18.9689, "LONGITUD": -99.227836 }, "geometry": { "type": "Point", "coordinates": [ -99.227836, 18.9689 ] } },
{ "type": "Feature", "properties": { "fid": 14, "NO": 12, "ENTIDAD": "MORELOS", "MUNICIPIO": "EMILIANO ZAPATA", "PUEBLO\nINDIGENA O\nAFROMEXICANO": "NAHUA", "LOCALIDAD": "TETECALITA", "CLAVE INEGI": 170080003, "TIPO DE\nASENTAMIENTO": "COMUNIDAD INDIGENA", "NOMBRE": "TETECALITA", "MONTO\nASIGNADO\n(PESOS)": 139608, "LATITUD": 18.769077, "LONGITUD": -99.179934 }, "geometry": { "type": "Point", "coordinates": [ -99.179934, 18.769077 ] } },
{ "type": "Feature", "properties": { "fid": 15, "NO": 12, "ENTIDAD": "MORELOS", "MUNICIPIO": "EMILIANO ZAPATA", "PUEBLO\nINDIGENA O\nAFROMEXICANO": "NAHUA", "LOCALIDAD": "TETECALITA", "CLAVE INEGI": 170080003, "TIPO DE\nASENTAMIENTO": "COMUNIDAD INDIGENA", "NOMBRE": "TETECALITA", "MONTO\nASIGNADO\n(PESOS)": 139608, "LATITUD": 18.769072, "LONGITUD": -99.173324 }, "geometry": { "type": "Point", "coordinates": [ -99.173324, 18.769072 ] } },
{ "type": "Feature", "properties": { "fid": 16, "NO": 13, "ENTIDAD": "MORELOS", "MUNICIPIO": "HUEYAPAN", "PUEBLO\nINDIGENA O\nAFROMEXICANO": "NAHUA", "LOCALIDAD": "BARRIO DE SAN MIGUEL", "CLAVE INEGI": 170360001, "TIPO DE\nASENTAMIENTO": "COMUNIDAD INDIGENA", "NOMBRE": "HUEYAPAN", "MONTO\nASIGNADO\n(PESOS)": 5557654, "LATITUD": 18.885134, "LONGITUD": -98.690684 }, "geometry": { "type": "Point", "coordinates": [ -98.690684, 18.885134 ] } },
{ "type": "Feature", "properties": { "fid": 17, "NO": 14, "ENTIDAD": "MORELOS", "MUNICIPIO": "HUITZILAC", "PUEBLO\nINDIGENA O\nAFROMEXICANO": "NAHUA", "LOCALIDAD": "COAJOMULCO", "CLAVE INEGI": 170090003, "TIPO DE\nASENTAMIENTO": "COMUNIDAD INDIGENA", "NOMBRE": "COAJOMULCO", "MONTO\nASIGNADO\n(PESOS)": 2066759, "LATITUD": 19.034908, "LONGITUD": -99.204784 }, "geometry": { "type": "Point", "coordinates": [ -99.204784, 19.034908 ] } },
{ "type": "Feature", "properties": { "fid": 18, "NO": 15, "ENTIDAD": "MORELOS", "MUNICIPIO": "JANTETELCO", "PUEBLO\nINDIGENA O\nAFROMEXICANO": "NAHUA", "LOCALIDAD": "AMAYUCA", "CLAVE INEGI": 170100002, "TIPO DE\nASENTAMIENTO": "COMUNIDAD INDIGENA", "NOMBRE": "AMAYUCA", "MONTO\nASIGNADO\n(PESOS)": 1028904, "LATITUD": 18.7248, "LONGITUD": -98.799083 }, "geometry": { "type": "Point", "coordinates": [ -98.799083, 18.7248 ] } },
{ "type": "Feature", "properties": { "fid": 19, "NO": 16, "ENTIDAD": "MORELOS", "MUNICIPIO": "JANTETELCO", "PUEBLO\nINDIGENA O\nAFROMEXICANO": "NAHUA", "LOCALIDAD": "CHALCATZINGO", "CLAVE INEGI": 170100003, "TIPO DE\nASENTAMIENTO": "COMUNIDAD INDIGENA", "NOMBRE": "CHALCATZINGO", "MONTO\nASIGNADO\n(PESOS)": 122633, "LATITUD": 18.689106, "LONGITUD": -98.774797 }, "geometry": { "type": "Point", "coordinates": [ -98.774797, 18.689106 ] } },
{ "type": "Feature", "properties": { "fid": 20, "NO": 17, "ENTIDAD": "MORELOS", "MUNICIPIO": "JANTETELCO", "PUEBLO\nINDIGENA O\nAFROMEXICANO": "NAHUA", "LOCALIDAD": "TENANGO (SANTA ANA)", "CLAVE INEGI": 170100006, "TIPO DE\nASENTAMIENTO": "COMUNIDAD INDIGENA", "NOMBRE": "TENANGO", "MONTO\nASIGNADO\n(PESOS)": 1763382, "LATITUD": 18.618306, "LONGITUD": -98.751483 }, "geometry": { "type": "Point", "coordinates": [ -98.751483, 18.618306 ] } },
{ "type": "Feature", "properties": { "fid": 21, "NO": 18, "ENTIDAD": "MORELOS", "MUNICIPIO": "JOJUTLA", "PUEBLO\nINDIGENA O\nAFROMEXICANO": "NAHUA", "LOCALIDAD": "CHISCO", "CLAVE INEGI": 170120002, "TIPO DE\nASENTAMIENTO": "COMUNIDAD INDIGENA", "NOMBRE": "CHISCO", "MONTO\nASIGNADO\n(PESOS)": 501758, "LATITUD": 18.548565, "LONGITUD": -99.235304 }, "geometry": { "type": "Point", "coordinates": [ -99.235304, 18.548565 ] } },
{ "type": "Feature", "properties": { "fid": 22, "NO": 19, "ENTIDAD": "MORELOS", "MUNICIPIO": "JOJUTLA", "PUEBLO\nINDIGENA O\nAFROMEXICANO": "NAHUA", "LOCALIDAD": "RIO SECO", "CLAVE INEGI": 170120009, "TIPO DE\nASENTAMIENTO": "COMUNIDAD INDIGENA", "NOMBRE": "RÍO SECO", "MONTO\nASIGNADO\n(PESOS)": 506632, "LATITUD": 18.567642, "LONGITUD": -99.244183 }, "geometry": { "type": "Point", "coordinates": [ -99.244183, 18.567642 ] } },
{ "type": "Feature", "properties": { "fid": 23, "NO": 20, "ENTIDAD": "MORELOS", "MUNICIPIO": "JONACATEPEC DE LEANDRO VALLE", "PUEBLO\nINDIGENA O\nAFROMEXICANO": "NAHUA", "LOCALIDAD": "AMACUITLAPILCO", "CLAVE INEGI": 170130002, "TIPO DE\nASENTAMIENTO": "COMUNIDAD INDIGENA", "NOMBRE": "AMACUITLAPILCO", "MONTO\nASIGNADO\n(PESOS)": 86256, "LATITUD": 18.696521, "LONGITUD": -98.811219 }, "geometry": { "type": "Point", "coordinates": [ -98.811219, 18.696521 ] } },
{ "type": "Feature", "properties": { "fid": 24, "NO": 21, "ENTIDAD": "MORELOS", "MUNICIPIO": "JONACATEPEC DE LEANDRO VALLE", "PUEBLO\nINDIGENA O\nAFROMEXICANO": "NAHUA", "LOCALIDAD": "TLAYCA", "CLAVE INEGI": 170130007, "TIPO DE\nASENTAMIENTO": "COMUNIDAD INDIGENA", "NOMBRE": "TLAYCA", "MONTO\nASIGNADO\n(PESOS)": 499332, "LATITUD": 18.70293, "LONGITUD": -98.850098 }, "geometry": { "type": "Point", "coordinates": [ -98.850098, 18.70293 ] } },
{ "type": "Feature", "properties": { "fid": 25, "NO": 22, "ENTIDAD": "MORELOS", "MUNICIPIO": "MAZATEPEC", "PUEBLO\nINDIGENA O\nAFROMEXICANO": "NAHUA", "LOCALIDAD": "CUAUCHICHINOLA", "CLAVE INEGI": 170140002, "TIPO DE\nASENTAMIENTO": "COMUNIDAD INDIGENA", "NOMBRE": "CUAUCHICHINOLA", "MONTO\nASIGNADO\n(PESOS)": 2153015, "LATITUD": 18.664087, "LONGITUD": -99.373405 }, "geometry": { "type": "Point", "coordinates": [ -99.373405, 18.664087 ] } },
{ "type": "Feature", "properties": { "fid": 26, "NO": 23, "ENTIDAD": "MORELOS", "MUNICIPIO": "OCUITUCO", "PUEBLO\nINDIGENA O\nAFROMEXICANO": "NAHUA", "LOCALIDAD": "HUECAHUASCO", "CLAVE INEGI": 170160002, "TIPO DE\nASENTAMIENTO": "COMUNIDAD INDIGENA", "NOMBRE": "HUECAHUAXCO", "MONTO\nASIGNADO\n(PESOS)": 1766854, "LATITUD": 18.938229, "LONGITUD": -98.784501 }, "geometry": { "type": "Point", "coordinates": [ -98.784501, 18.938229 ] } },
{ "type": "Feature", "properties": { "fid": 27, "NO": 24, "ENTIDAD": "MORELOS", "MUNICIPIO": "OCUITUCO", "PUEBLO\nINDIGENA O\nAFROMEXICANO": "NAHUA", "LOCALIDAD": "HUEJOTENGO (SAN MARCOS)", "CLAVE INEGI": 170160003, "TIPO DE\nASENTAMIENTO": "COMUNIDAD INDIGENA", "NOMBRE": "HUEJOTENGO", "MONTO\nASIGNADO\n(PESOS)": 1092436, "LATITUD": 18.899588, "LONGITUD": -98.755018 }, "geometry": { "type": "Point", "coordinates": [ -98.755018, 18.899588 ] } },
{ "type": "Feature", "properties": { "fid": 28, "NO": 25, "ENTIDAD": "MORELOS", "MUNICIPIO": "OCUITUCO", "PUEBLO\nINDIGENA O\nAFROMEXICANO": "NAHUA", "LOCALIDAD": "HUEPALCALCO (SAN MIGUEL)", "CLAVE INEGI": 170160004, "TIPO DE\nASENTAMIENTO": "COMUNIDAD INDIGENA", "NOMBRE": "SAN MIGUEL HUEPALCALCO", "MONTO\nASIGNADO\n(PESOS)": 1081358, "LATITUD": 18.909128, "LONGITUD": -98.749644 }, "geometry": { "type": "Point", "coordinates": [ -98.749644, 18.909128 ] } },
{ "type": "Feature", "properties": { "fid": 29, "NO": 26, "ENTIDAD": "MORELOS", "MUNICIPIO": "OCUITUCO", "PUEBLO\nINDIGENA O\nAFROMEXICANO": "NAHUA", "LOCALIDAD": "JUMILTEPEC", "CLAVE INEGI": 170160005, "TIPO DE\nASENTAMIENTO": "COMUNIDAD INDIGENA", "NOMBRE": "JUMILTEPEC", "MONTO\nASIGNADO\n(PESOS)": 105657, "LATITUD": 18.913384, "LONGITUD": -98.775064 }, "geometry": { "type": "Point", "coordinates": [ -98.775064, 18.913384 ] } },
{ "type": "Feature", "properties": { "fid": 30, "NO": 27, "ENTIDAD": "MORELOS", "MUNICIPIO": "OCUITUCO", "PUEBLO\nINDIGENA O\nAFROMEXICANO": "NAHUA", "LOCALIDAD": "METEPEC", "CLAVE INEGI": 170160006, "TIPO DE\nASENTAMIENTO": "COMUNIDAD INDIGENA", "NOMBRE": "METEPEC", "MONTO\nASIGNADO\n(PESOS)": 126675, "LATITUD": 18.879654, "LONGITUD": -98.745236 }, "geometry": { "type": "Point", "coordinates": [ -98.745236, 18.879654 ] } },
{ "type": "Feature", "properties": { "fid": 31, "NO": 28, "ENTIDAD": "MORELOS", "MUNICIPIO": "OCUITUCO", "PUEBLO\nINDIGENA O\nAFROMEXICANO": "NAHUA", "LOCALIDAD": "OCOXALTEPEC", "CLAVE INEGI": 170160007, "TIPO DE\nASENTAMIENTO": "COMUNIDAD INDIGENA", "NOMBRE": "OCOXALTEPEC", "MONTO\nASIGNADO\n(PESOS)": 1322252, "LATITUD": 18.933516, "LONGITUD": -98.7516 }, "geometry": { "type": "Point", "coordinates": [ -98.7516, 18.933516 ] } },
{ "type": "Feature", "properties": { "fid": 32, "NO": 29, "ENTIDAD": "MORELOS", "MUNICIPIO": "OCUITUCO", "PUEBLO\nINDIGENA O\nAFROMEXICANO": "NAHUA", "LOCALIDAD": "OCUITUCO", "CLAVE INEGI": 170160001, "TIPO DE\nASENTAMIENTO": "COMUNIDAD INDIGENA", "NOMBRE": "COLONIA 5 DE MAYO", "MONTO\nASIGNADO\n(PESOS)": 227481, "LATITUD": 18.877692, "LONGITUD": -98.775697 }, "geometry": { "type": "Point", "coordinates": [ -98.775697, 18.877692 ] } },
{ "type": "Feature", "properties": { "fid": 33, "NO": 30, "ENTIDAD": "MORELOS", "MUNICIPIO": "PUENTE DE IXTLA", "PUEBLO\nINDIGENA O\nAFROMEXICANO": "NAHUA", "LOCALIDAD": "AHUEHUETZINGO", "CLAVE INEGI": 170170002, "TIPO DE\nASENTAMIENTO": "COMUNIDAD INDIGENA", "NOMBRE": "AHUEHUETZINGO", "MONTO\nASIGNADO\n(PESOS)": 1438657, "LATITUD": 18.680409, "LONGITUD": -99.308836 }, "geometry": { "type": "Point", "coordinates": [ -99.308836, 18.680409 ] } },
{ "type": "Feature", "properties": { "fid": 34, "NO": 31, "ENTIDAD": "MORELOS", "MUNICIPIO": "PUENTE DE IXTLA", "PUEBLO\nINDIGENA O\nAFROMEXICANO": "NAHUA", "LOCALIDAD": "LA TIGRA", "CLAVE INEGI": 170170006, "TIPO DE\nASENTAMIENTO": "COMUNIDAD INDIGENA", "NOMBRE": "LA TIGRA", "MONTO\nASIGNADO\n(PESOS)": 391011, "LATITUD": 18.525769, "LONGITUD": -99.332274 }, "geometry": { "type": "Point", "coordinates": [ -99.332274, 18.525769 ] } },
{ "type": "Feature", "properties": { "fid": 35, "NO": 32, "ENTIDAD": "MORELOS", "MUNICIPIO": "TEMIXCO", "PUEBLO\nINDIGENA O\nAFROMEXICANO": "NAHUA", "LOCALIDAD": "CUENTEPEC", "CLAVE INEGI": 170180004, "TIPO DE\nASENTAMIENTO": "COMUNIDAD INDIGENA", "NOMBRE": "CUENTEPEC", "MONTO\nASIGNADO\n(PESOS)": 3302754, "LATITUD": 18.860731, "LONGITUD": -99.325739 }, "geometry": { "type": "Point", "coordinates": [ -99.325739, 18.860731 ] } },
{ "type": "Feature", "properties": { "fid": 36, "NO": 32, "ENTIDAD": "MORELOS", "MUNICIPIO": "TEMIXCO", "PUEBLO\nINDIGENA O\nAFROMEXICANO": "NAHUA", "LOCALIDAD": "CUENTEPEC", "CLAVE INEGI": 170180004, "TIPO DE\nASENTAMIENTO": "COMUNIDAD INDIGENA", "NOMBRE": "CUENTEPEC", "MONTO\nASIGNADO\n(PESOS)": 3302754, "LATITUD": 18.85669, "LONGITUD": -99.324378 }, "geometry": { "type": "Point", "coordinates": [ -99.324378, 18.85669 ] } },
{ "type": "Feature", "properties": { "fid": 37, "NO": 33, "ENTIDAD": "MORELOS", "MUNICIPIO": "TEMIXCO", "PUEBLO\nINDIGENA O\nAFROMEXICANO": "NAHUA", "LOCALIDAD": "SAN AGUSTIN TETLAMA", "CLAVE INEGI": 170180008, "TIPO DE\nASENTAMIENTO": "COMUNIDAD INDIGENA", "NOMBRE": "SAN AGUSTÍN TETLAMA", "MONTO\nASIGNADO\n(PESOS)": 1924247, "LATITUD": 18.830043, "LONGITUD": -99.283659 }, "geometry": { "type": "Point", "coordinates": [ -99.283659, 18.830043 ] } },
{ "type": "Feature", "properties": { "fid": 38, "NO": 34, "ENTIDAD": "MORELOS", "MUNICIPIO": "TEMOAC", "PUEBLO\nINDIGENA O\nAFROMEXICANO": "NAHUA", "LOCALIDAD": "AMILCINGO", "CLAVE INEGI": 170330002, "TIPO DE\nASENTAMIENTO": "COMUNIDAD INDIGENA", "NOMBRE": "AMILCINGO", "MONTO\nASIGNADO\n(PESOS)": 173560, "LATITUD": 18.73053, "LONGITUD": -98.767383 }, "geometry": { "type": "Point", "coordinates": [ -98.767383, 18.73053 ] } },
{ "type": "Feature", "properties": { "fid": 39, "NO": 34, "ENTIDAD": "MORELOS", "MUNICIPIO": "TEMOAC", "PUEBLO\nINDIGENA O\nAFROMEXICANO": "NAHUA", "LOCALIDAD": "AMILCINGO", "CLAVE INEGI": 170330002, "TIPO DE\nASENTAMIENTO": "COMUNIDAD INDIGENA", "NOMBRE": "AMILCINGO", "MONTO\nASIGNADO\n(PESOS)": 173560, "LATITUD": 18.945959, "LONGITUD": -99.085141 }, "geometry": { "type": "Point", "coordinates": [ -99.085141, 18.945959 ] } },
{ "type": "Feature", "properties": { "fid": 40, "NO": 34, "ENTIDAD": "MORELOS", "MUNICIPIO": "TEMOAC", "PUEBLO\nINDIGENA O\nAFROMEXICANO": "NAHUA", "LOCALIDAD": "AMILCINGO", "CLAVE INEGI": 170330002, "TIPO DE\nASENTAMIENTO": "COMUNIDAD INDIGENA", "NOMBRE": "AMILCINGO", "MONTO\nASIGNADO\n(PESOS)": 173560, "LATITUD": 18.74427, "LONGITUD": -98.769672 }, "geometry": { "type": "Point", "coordinates": [ -98.769672, 18.74427 ] } },
{ "type": "Feature", "properties": { "fid": 41, "NO": 35, "ENTIDAD": "MORELOS", "MUNICIPIO": "TEMOAC", "PUEBLO\nINDIGENA O\nAFROMEXICANO": "NAHUA", "LOCALIDAD": "HUAZULCO", "CLAVE INEGI": 170330003, "TIPO DE\nASENTAMIENTO": "COMUNIDAD INDIGENA", "NOMBRE": "HUAZULCO", "MONTO\nASIGNADO\n(PESOS)": 128291, "LATITUD": 18.75372, "LONGITUD": -98.775303 }, "geometry": { "type": "Point", "coordinates": [ -98.775303, 18.75372 ] } },
{ "type": "Feature", "properties": { "fid": 42, "NO": 36, "ENTIDAD": "MORELOS", "MUNICIPIO": "TEMOAC", "PUEBLO\nINDIGENA O\nAFROMEXICANO": "NAHUA", "LOCALIDAD": "POPOTLAN (BARRIO SANTO TOMAS)", "CLAVE INEGI": 170330004, "TIPO DE\nASENTAMIENTO": "COMUNIDAD INDIGENA", "NOMBRE": "POPOTLÁN", "MONTO\nASIGNADO\n(PESOS)": 859865, "LATITUD": 18.765993, "LONGITUD": -98.766563 }, "geometry": { "type": "Point", "coordinates": [ -98.766563, 18.765993 ] } },
{ "type": "Feature", "properties": { "fid": 43, "NO": 37, "ENTIDAD": "MORELOS", "MUNICIPIO": "TEMOAC", "PUEBLO\nINDIGENA O\nAFROMEXICANO": "NAHUA", "LOCALIDAD": "TEMOAC", "CLAVE INEGI": 170330001, "TIPO DE\nASENTAMIENTO": "COMUNIDAD INDIGENA", "NOMBRE": "TEMOAC", "MONTO\nASIGNADO\n(PESOS)": 208889, "LATITUD": 18.772314, "LONGITUD": -98.778042 }, "geometry": { "type": "Point", "coordinates": [ -98.778042, 18.772314 ] } },
{ "type": "Feature", "properties": { "fid": 44, "NO": 38, "ENTIDAD": "MORELOS", "MUNICIPIO": "TEPALCINGO", "PUEBLO\nINDIGENA O\nAFROMEXICANO": "NAHUA", "LOCALIDAD": "ATOTONILCO", "CLAVE INEGI": 170190002, "TIPO DE\nASENTAMIENTO": "COMUNIDAD INDIGENA", "NOMBRE": "ATOTONILCO", "MONTO\nASIGNADO\n(PESOS)": 233948, "LATITUD": 18.650052, "LONGITUD": -98.834037 }, "geometry": { "type": "Point", "coordinates": [ -98.834037, 18.650052 ] } },
{ "type": "Feature", "properties": { "fid": 45, "NO": 39, "ENTIDAD": "MORELOS", "MUNICIPIO": "TEPALCINGO", "PUEBLO\nINDIGENA O\nAFROMEXICANO": "NAHUA", "LOCALIDAD": "CRUZ DE JARAMALLA (COLONIA LAURO ORTEGA)", "CLAVE INEGI": 170190012, "TIPO DE\nASENTAMIENTO": "COMUNIDAD INDIGENA", "NOMBRE": "CRUZ DE JARAMALLA", "MONTO\nASIGNADO\n(PESOS)": 385352, "LATITUD": 18.628338, "LONGITUD": -98.896684 }, "geometry": { "type": "Point", "coordinates": [ -98.896684, 18.628338 ] } },
{ "type": "Feature", "properties": { "fid": 46, "NO": 40, "ENTIDAD": "MORELOS", "MUNICIPIO": "TEPALCINGO", "PUEBLO\nINDIGENA O\nAFROMEXICANO": "NAHUA", "LOCALIDAD": "EL LIMON DE CUAUCHICHINOLA", "CLAVE INEGI": 170190006, "TIPO DE\nASENTAMIENTO": "COMUNIDAD INDIGENA", "NOMBRE": "EL LIMÓN DE CUAUCHICHINOLA", "MONTO\nASIGNADO\n(PESOS)": 190536, "LATITUD": 18.530208, "LONGITUD": -98.936547 }, "geometry": { "type": "Point", "coordinates": [ -98.936547, 18.530208 ] } },
{ "type": "Feature", "properties": { "fid": 47, "NO": 41, "ENTIDAD": "MORELOS", "MUNICIPIO": "TEPALCINGO", "PUEBLO\nINDIGENA O\nAFROMEXICANO": "NAHUA", "LOCALIDAD": "HUITCHILA", "CLAVE INEGI": 170190003, "TIPO DE\nASENTAMIENTO": "COMUNIDAD INDIGENA", "NOMBRE": "POBLADO HUITCHILA", "MONTO\nASIGNADO\n(PESOS)": 1851733, "LATITUD": 18.639096, "LONGITUD": -98.925189 }, "geometry": { "type": "Point", "coordinates": [ -98.925189, 18.639096 ] } },
{ "type": "Feature", "properties": { "fid": 48, "NO": 42, "ENTIDAD": "MORELOS", "MUNICIPIO": "TEPALCINGO", "PUEBLO\nINDIGENA O\nAFROMEXICANO": "NAHUA", "LOCALIDAD": "PITZOTLAN", "CLAVE INEGI": 170190008, "TIPO DE\nASENTAMIENTO": "COMUNIDAD INDIGENA", "NOMBRE": "PITZOTLÁN", "MONTO\nASIGNADO\n(PESOS)": 138658, "LATITUD": 18.586937, "LONGITUD": -98.893014 }, "geometry": { "type": "Point", "coordinates": [ -98.893014, 18.586937 ] } },
{ "type": "Feature", "properties": { "fid": 49, "NO": 43, "ENTIDAD": "MORELOS", "MUNICIPIO": "TEPALCINGO", "PUEBLO\nINDIGENA O\nAFROMEXICANO": "NAHUA", "LOCALIDAD": "ZACAPALCO", "CLAVE INEGI": 170190011, "TIPO DE\nASENTAMIENTO": "COMUNIDAD INDIGENA", "NOMBRE": "ZACAPALCO", "MONTO\nASIGNADO\n(PESOS)": 1566379, "LATITUD": 18.638654, "LONGITUD": -98.959615 }, "geometry": { "type": "Point", "coordinates": [ -98.959615, 18.638654 ] } },
{ "type": "Feature", "properties": { "fid": 50, "NO": 44, "ENTIDAD": "MORELOS", "MUNICIPIO": "TEPOZTLAN", "PUEBLO\nINDIGENA O\nAFROMEXICANO": "NAHUA", "LOCALIDAD": "AMATLAN DE QUETZALCOATL", "CLAVE INEGI": 170200003, "TIPO DE\nASENTAMIENTO": "COMUNIDAD INDIGENA", "NOMBRE": "AMATLÁN DE QUETZALCÓATL", "MONTO\nASIGNADO\n(PESOS)": 1145219, "LATITUD": 18.979045, "LONGITUD": -99.036206 }, "geometry": { "type": "Point", "coordinates": [ -99.036206, 18.979045 ] } },
{ "type": "Feature", "properties": { "fid": 51, "NO": 45, "ENTIDAD": "MORELOS", "MUNICIPIO": "TEPOZTLAN", "PUEBLO\nINDIGENA O\nAFROMEXICANO": "NAHUA", "LOCALIDAD": "COLONIA ANGEL BOCANEGRA (ADOLFO LOPEZ MATEOS)", "CLAVE INEGI": 170200002, "TIPO DE\nASENTAMIENTO": "COMUNIDAD INDIGENA", "NOMBRE": "ÁNGEL BOCA NEGRA", "MONTO\nASIGNADO\n(PESOS)": 1697904, "LATITUD": 18.927492, "LONGITUD": -99.030137 }, "geometry": { "type": "Point", "coordinates": [ -99.030137, 18.927492 ] } },
{ "type": "Feature", "properties": { "fid": 52, "NO": 46, "ENTIDAD": "MORELOS", "MUNICIPIO": "TEPOZTLAN", "PUEBLO\nINDIGENA O\nAFROMEXICANO": "NAHUA", "LOCALIDAD": "COLONIA HUILOTEPEC", "CLAVE INEGI": 170200104, "TIPO DE\nASENTAMIENTO": "COMUNIDAD INDIGENA", "NOMBRE": "HUILOTEPEC", "MONTO\nASIGNADO\n(PESOS)": 827530, "LATITUD": 18.97439, "LONGITUD": -99.076015 }, "geometry": { "type": "Point", "coordinates": [ -99.076015, 18.97439 ] } },
{ "type": "Feature", "properties": { "fid": 53, "NO": 47, "ENTIDAD": "MORELOS", "MUNICIPIO": "TEPOZTLAN", "PUEBLO\nINDIGENA O\nAFROMEXICANO": "NAHUA", "LOCALIDAD": "IXCATEPEC", "CLAVE INEGI": 170200004, "TIPO DE\nASENTAMIENTO": "COMUNIDAD INDIGENA", "NOMBRE": "IXCATEPEC", "MONTO\nASIGNADO\n(PESOS)": 657773, "LATITUD": 18.977889, "LONGITUD": -99.079751 }, "geometry": { "type": "Point", "coordinates": [ -99.079751, 18.977889 ] } },
{ "type": "Feature", "properties": { "fid": 54, "NO": 48, "ENTIDAD": "MORELOS", "MUNICIPIO": "TEPOZTLAN", "PUEBLO\nINDIGENA O\nAFROMEXICANO": "NAHUA", "LOCALIDAD": "SAN ANDRES DE LA CAL", "CLAVE INEGI": 170200005, "TIPO DE\nASENTAMIENTO": "COMUNIDAD INDIGENA", "NOMBRE": "SAN ANDRÉS DE LA CAL", "MONTO\nASIGNADO\n(PESOS)": 1414406, "LATITUD": 18.956779, "LONGITUD": -99.116132 }, "geometry": { "type": "Point", "coordinates": [ -99.116132, 18.956779 ] } },
{ "type": "Feature", "properties": { "fid": 55, "NO": 49, "ENTIDAD": "MORELOS", "MUNICIPIO": "TEPOZTLAN", "PUEBLO\nINDIGENA O\nAFROMEXICANO": "NAHUA", "LOCALIDAD": "SAN JUAN TLACOTENCO", "CLAVE INEGI": 170200009, "TIPO DE\nASENTAMIENTO": "COMUNIDAD INDIGENA", "NOMBRE": "SAN JUAN TLACOTENCO", "MONTO\nASIGNADO\n(PESOS)": 2274031, "LATITUD": 19.017696, "LONGITUD": -99.092679 }, "geometry": { "type": "Point", "coordinates": [ -99.092679, 19.017696 ] } },
{ "type": "Feature", "properties": { "fid": 56, "NO": 50, "ENTIDAD": "MORELOS", "MUNICIPIO": "TEPOZTLAN", "PUEBLO\nINDIGENA O\nAFROMEXICANO": "NAHUA", "LOCALIDAD": "SANTA CATARINA", "CLAVE INEGI": 170200006, "TIPO DE\nASENTAMIENTO": "COMUNIDAD INDIGENA", "NOMBRE": "SANTA CATARINA", "MONTO\nASIGNADO\n(PESOS)": 1833141, "LATITUD": 18.971699, "LONGITUD": -99.141474 }, "geometry": { "type": "Point", "coordinates": [ -99.141474, 18.971699 ] } },
{ "type": "Feature", "properties": { "fid": 57, "NO": 51, "ENTIDAD": "MORELOS", "MUNICIPIO": "TEPOZTLAN", "PUEBLO\nINDIGENA O\nAFROMEXICANO": "NAHUA", "LOCALIDAD": "SANTIAGO TEPETLAPA", "CLAVE INEGI": 170200007, "TIPO DE\nASENTAMIENTO": "COMUNIDAD INDIGENA", "NOMBRE": "SANTIAGO TEPETLAPA", "MONTO\nASIGNADO\n(PESOS)": 922109, "LATITUD": 18.965929, "LONGITUD": -99.076195 }, "geometry": { "type": "Point", "coordinates": [ -99.076195, 18.965929 ] } },
{ "type": "Feature", "properties": { "fid": 58, "NO": 52, "ENTIDAD": "MORELOS", "MUNICIPIO": "TEPOZTLAN", "PUEBLO\nINDIGENA O\nAFROMEXICANO": "NAHUA", "LOCALIDAD": "SANTO DOMINGO OCOTITLAN", "CLAVE INEGI": 170200008, "TIPO DE\nASENTAMIENTO": "COMUNIDAD INDIGENA", "NOMBRE": "SANTO DOMINGO OCOTITLÁN", "MONTO\nASIGNADO\n(PESOS)": 1538894, "LATITUD": 19.014388, "LONGITUD": -99.060458 }, "geometry": { "type": "Point", "coordinates": [ -99.060458, 19.014388 ] } },
{ "type": "Feature", "properties": { "fid": 59, "NO": 53, "ENTIDAD": "MORELOS", "MUNICIPIO": "TEPOZTLAN", "PUEBLO\nINDIGENA O\nAFROMEXICANO": "NAHUA", "LOCALIDAD": "TEPOZTLAN", "CLAVE INEGI": 170200001, "TIPO DE\nASENTAMIENTO": "COMUNIDAD INDIGENA", "NOMBRE": "TEPOZTLÁN", "MONTO\nASIGNADO\n(PESOS)": 302091, "LATITUD": 18.986457, "LONGITUD": -99.101227 }, "geometry": { "type": "Point", "coordinates": [ -99.101227, 18.986457 ] } },
{ "type": "Feature", "properties": { "fid": 60, "NO": 54, "ENTIDAD": "MORELOS", "MUNICIPIO": "TEPOZTLAN", "PUEBLO\nINDIGENA O\nAFROMEXICANO": "NAHUA", "LOCALIDAD": "TEPOZTLAN", "CLAVE INEGI": 170200001, "TIPO DE\nASENTAMIENTO": "COMUNIDAD INDIGENA", "NOMBRE": "TIERRA BLANCA", "MONTO\nASIGNADO\n(PESOS)": 664240, "LATITUD": 18.986457, "LONGITUD": -99.101227 }, "geometry": { "type": "Point", "coordinates": [ -99.101227, 18.986457 ] } },
{ "type": "Feature", "properties": { "fid": 61, "NO": 55, "ENTIDAD": "MORELOS", "MUNICIPIO": "TETELA DEL VOLCAN", "PUEBLO\nINDIGENA O\nAFROMEXICANO": "NAHUA", "LOCALIDAD": "TETELA DEL VOLCAN", "CLAVE INEGI": 170220001, "TIPO DE\nASENTAMIENTO": "COMUNIDAD INDIGENA", "NOMBRE": "TETELA DEL VOLCÁN", "MONTO\nASIGNADO\n(PESOS)": 986391, "LATITUD": 18.893525, "LONGITUD": -98.730065 }, "geometry": { "type": "Point", "coordinates": [ -98.730065, 18.893525 ] } },
{ "type": "Feature", "properties": { "fid": 62, "NO": 56, "ENTIDAD": "MORELOS", "MUNICIPIO": "TETELA DEL VOLCAN", "PUEBLO\nINDIGENA O\nAFROMEXICANO": "NAHUA", "LOCALIDAD": "TLALMIMILULPAN (SAN PEDRO)", "CLAVE INEGI": 170220003, "TIPO DE\nASENTAMIENTO": "COMUNIDAD INDIGENA", "NOMBRE": "SAN PEDRO TLALMIMILULPAN", "MONTO\nASIGNADO\n(PESOS)": 1794154, "LATITUD": 18.915939, "LONGITUD": -98.742369 }, "geometry": { "type": "Point", "coordinates": [ -98.742369, 18.915939 ] } },
{ "type": "Feature", "properties": { "fid": 63, "NO": 57, "ENTIDAD": "MORELOS", "MUNICIPIO": "TLALNEPANTLA", "PUEBLO\nINDIGENA O\nAFROMEXICANO": "NAHUA", "LOCALIDAD": "EL PEDREGAL", "CLAVE INEGI": 170230007, "TIPO DE\nASENTAMIENTO": "COMUNIDAD INDIGENA", "NOMBRE": "EL PEDREGAL", "MONTO\nASIGNADO\n(PESOS)": 608462, "LATITUD": 18.619807, "LONGITUD": -98.777157 }, "geometry": { "type": "Point", "coordinates": [ -98.777157, 18.619807 ] } },
{ "type": "Feature", "properties": { "fid": 64, "NO": 57, "ENTIDAD": "MORELOS", "MUNICIPIO": "TLALNEPANTLA", "PUEBLO\nINDIGENA O\nAFROMEXICANO": "NAHUA", "LOCALIDAD": "EL PEDREGAL", "CLAVE INEGI": 170230007, "TIPO DE\nASENTAMIENTO": "COMUNIDAD INDIGENA", "NOMBRE": "EL PEDREGAL", "MONTO\nASIGNADO\n(PESOS)": 608462, "LATITUD": 18.961681, "LONGITUD": -99.065419 }, "geometry": { "type": "Point", "coordinates": [ -99.065419, 18.961681 ] } },
{ "type": "Feature", "properties": { "fid": 65, "NO": 57, "ENTIDAD": "MORELOS", "MUNICIPIO": "TLALNEPANTLA", "PUEBLO\nINDIGENA O\nAFROMEXICANO": "NAHUA", "LOCALIDAD": "EL PEDREGAL", "CLAVE INEGI": 170230007, "TIPO DE\nASENTAMIENTO": "COMUNIDAD INDIGENA", "NOMBRE": "EL PEDREGAL", "MONTO\nASIGNADO\n(PESOS)": 608462, "LATITUD": 19.005643, "LONGITUD": -98.984646 }, "geometry": { "type": "Point", "coordinates": [ -98.984646, 19.005643 ] } },
{ "type": "Feature", "properties": { "fid": 66, "NO": 57, "ENTIDAD": "MORELOS", "MUNICIPIO": "TLALNEPANTLA", "PUEBLO\nINDIGENA O\nAFROMEXICANO": "NAHUA", "LOCALIDAD": "EL PEDREGAL", "CLAVE INEGI": 170230007, "TIPO DE\nASENTAMIENTO": "COMUNIDAD INDIGENA", "NOMBRE": "EL PEDREGAL", "MONTO\nASIGNADO\n(PESOS)": 608462, "LATITUD": 18.790319, "LONGITUD": -99.20552 }, "geometry": { "type": "Point", "coordinates": [ -99.20552, 18.790319 ] } },
{ "type": "Feature", "properties": { "fid": 67, "NO": 58, "ENTIDAD": "MORELOS", "MUNICIPIO": "TLALNEPANTLA", "PUEBLO\nINDIGENA O\nAFROMEXICANO": "NAHUA", "LOCALIDAD": "TLALNEPANTLA", "CLAVE INEGI": 170230001, "TIPO DE\nASENTAMIENTO": "COMUNIDAD INDIGENA", "NOMBRE": "TLALNEPANTLA", "MONTO\nASIGNADO\n(PESOS)": 202661, "LATITUD": 19.007927, "LONGITUD": -98.997352 }, "geometry": { "type": "Point", "coordinates": [ -98.997352, 19.007927 ] } },
{ "type": "Feature", "properties": { "fid": 68, "NO": 59, "ENTIDAD": "MORELOS", "MUNICIPIO": "TLALTIZAPAN DE ZAPATA", "PUEBLO\nINDIGENA O\nAFROMEXICANO": "NAHUA", "LOCALIDAD": "ACAMILPA", "CLAVE INEGI": 170240002, "TIPO DE\nASENTAMIENTO": "COMUNIDAD INDIGENA", "NOMBRE": "ACAMILPA", "MONTO\nASIGNADO\n(PESOS)": 1608414, "LATITUD": 18.715474, "LONGITUD": -99.159442 }, "geometry": { "type": "Point", "coordinates": [ -99.159442, 18.715474 ] } },
{ "type": "Feature", "properties": { "fid": 69, "NO": 60, "ENTIDAD": "MORELOS", "MUNICIPIO": "TLALTIZAPAN DE ZAPATA", "PUEBLO\nINDIGENA O\nAFROMEXICANO": "NAHUA", "LOCALIDAD": "PUEBLO NUEVO", "CLAVE INEGI": 170240010, "TIPO DE\nASENTAMIENTO": "COMUNIDAD INDIGENA", "NOMBRE": "PUEBLO NUEVO", "MONTO\nASIGNADO\n(PESOS)": 1119351, "LATITUD": 18.702439, "LONGITUD": -99.151844 }, "geometry": { "type": "Point", "coordinates": [ -99.151844, 18.702439 ] } },
{ "type": "Feature", "properties": { "fid": 70, "NO": 61, "ENTIDAD": "MORELOS", "MUNICIPIO": "TLALTIZAPAN DE ZAPATA", "PUEBLO\nINDIGENA O\nAFROMEXICANO": "NAHUA", "LOCALIDAD": "SAN PABLO HIDALGO", "CLAVE INEGI": 170240006, "TIPO DE\nASENTAMIENTO": "COMUNIDAD INDIGENA", "NOMBRE": "SAN PABLO HIDALGO", "MONTO\nASIGNADO\n(PESOS)": 560768, "LATITUD": 18.579127, "LONGITUD": -99.039292 }, "geometry": { "type": "Point", "coordinates": [ -99.039292, 18.579127 ] } },
{ "type": "Feature", "properties": { "fid": 71, "NO": 61, "ENTIDAD": "MORELOS", "MUNICIPIO": "TLALTIZAPAN DE ZAPATA", "PUEBLO\nINDIGENA O\nAFROMEXICANO": "NAHUA", "LOCALIDAD": "SAN PABLO HIDALGO", "CLAVE INEGI": 170240006, "TIPO DE\nASENTAMIENTO": "COMUNIDAD INDIGENA", "NOMBRE": "SAN PABLO HIDALGO", "MONTO\nASIGNADO\n(PESOS)": 560768, "LATITUD": 18.582722, "LONGITUD": -99.041857 }, "geometry": { "type": "Point", "coordinates": [ -99.041857, 18.582722 ] } },
{ "type": "Feature", "properties": { "fid": 72, "NO": 62, "ENTIDAD": "MORELOS", "MUNICIPIO": "TLALTIZAPAN DE ZAPATA", "PUEBLO\nINDIGENA O\nAFROMEXICANO": "NAHUA", "LOCALIDAD": "TEMIMILCINGO", "CLAVE INEGI": 170240011, "TIPO DE\nASENTAMIENTO": "COMUNIDAD INDIGENA", "NOMBRE": "TEMIMILCINGO", "MONTO\nASIGNADO\n(PESOS)": 1300426, "LATITUD": 18.729066, "LONGITUD": -99.160124 }, "geometry": { "type": "Point", "coordinates": [ -99.160124, 18.729066 ] } },
{ "type": "Feature", "properties": { "fid": 73, "NO": 63, "ENTIDAD": "MORELOS", "MUNICIPIO": "TLALTIZAPAN DE ZAPATA", "PUEBLO\nINDIGENA O\nAFROMEXICANO": "AFROMEXICANO", "LOCALIDAD": "TICUMAN", "CLAVE INEGI": 170240012, "TIPO DE\nASENTAMIENTO": "COMUNIDAD AFROMEXICANA", "NOMBRE": "TICUMÁN", "MONTO\nASIGNADO\n(PESOS)": 106465, "LATITUD": 18.76216, "LONGITUD": -99.119087 }, "geometry": { "type": "Point", "coordinates": [ -99.119087, 18.76216 ] } },
{ "type": "Feature", "properties": { "fid": 74, "NO": 64, "ENTIDAD": "MORELOS", "MUNICIPIO": "TLAQUILTENANGO", "PUEBLO\nINDIGENA O\nAFROMEXICANO": "NAHUA", "LOCALIDAD": "AJUCHITLAN", "CLAVE INEGI": 170250002, "TIPO DE\nASENTAMIENTO": "COMUNIDAD INDIGENA", "NOMBRE": "AJUCHITLÁN", "MONTO\nASIGNADO\n(PESOS)": 235804, "LATITUD": 18.463901, "LONGITUD": -98.972961 }, "geometry": { "type": "Point", "coordinates": [ -98.972961, 18.463901 ] } },
{ "type": "Feature", "properties": { "fid": 75, "NO": 65, "ENTIDAD": "MORELOS", "MUNICIPIO": "TLAQUILTENANGO", "PUEBLO\nINDIGENA O\nAFROMEXICANO": "NAHUA", "LOCALIDAD": "CHIMALACATLAN", "CLAVE INEGI": 170250006, "TIPO DE\nASENTAMIENTO": "COMUNIDAD INDIGENA", "NOMBRE": "CHIMALACATLÁN", "MONTO\nASIGNADO\n(PESOS)": 346551, "LATITUD": 18.463808, "LONGITUD": -99.088662 }, "geometry": { "type": "Point", "coordinates": [ -99.088662, 18.463808 ] } },
{ "type": "Feature", "properties": { "fid": 76, "NO": 66, "ENTIDAD": "MORELOS", "MUNICIPIO": "TLAQUILTENANGO", "PUEBLO\nINDIGENA O\nAFROMEXICANO": "NAHUA", "LOCALIDAD": "HUAUTLA", "CLAVE INEGI": 170250009, "TIPO DE\nASENTAMIENTO": "COMUNIDAD INDIGENA", "NOMBRE": "HUAUTLA", "MONTO\nASIGNADO\n(PESOS)": 779836, "LATITUD": 18.441711, "LONGITUD": -99.022451 }, "geometry": { "type": "Point", "coordinates": [ -99.022451, 18.441711 ] } },
{ "type": "Feature", "properties": { "fid": 77, "NO": 67, "ENTIDAD": "MORELOS", "MUNICIPIO": "TLAQUILTENANGO", "PUEBLO\nINDIGENA O\nAFROMEXICANO": "NAHUA", "LOCALIDAD": "HUIXASTLA", "CLAVE INEGI": 170250011, "TIPO DE\nASENTAMIENTO": "COMUNIDAD INDIGENA", "NOMBRE": "HUIXASTLA", "MONTO\nASIGNADO\n(PESOS)": 287540, "LATITUD": 18.476354, "LONGITUD": -99.143895 }, "geometry": { "type": "Point", "coordinates": [ -99.143895, 18.476354 ] } },
{ "type": "Feature", "properties": { "fid": 78, "NO": 68, "ENTIDAD": "MORELOS", "MUNICIPIO": "TLAQUILTENANGO", "PUEBLO\nINDIGENA O\nAFROMEXICANO": "NAHUA", "LOCALIDAD": "QUILAMULA", "CLAVE INEGI": 170250016, "TIPO DE\nASENTAMIENTO": "COMUNIDAD INDIGENA", "NOMBRE": "QUILAMULA", "MONTO\nASIGNADO\n(PESOS)": 715167, "LATITUD": 18.51001, "LONGITUD": -99.020042 }, "geometry": { "type": "Point", "coordinates": [ -99.020042, 18.51001 ] } },
{ "type": "Feature", "properties": { "fid": 79, "NO": 69, "ENTIDAD": "MORELOS", "MUNICIPIO": "TLAYACAPAN", "PUEBLO\nINDIGENA O\nAFROMEXICANO": "NAHUA", "LOCALIDAD": "LOS LAURELES (SAN JOSE DE LOS LAURELES)", "CLAVE INEGI": 170260004, "TIPO DE\nASENTAMIENTO": "COMUNIDAD INDIGENA", "NOMBRE": "SAN JOSÉ DE LOS LAURELES", "MONTO\nASIGNADO\n(PESOS)": 1428148, "LATITUD": 18.982121, "LONGITUD": -99.002522 }, "geometry": { "type": "Point", "coordinates": [ -99.002522, 18.982121 ] } },
{ "type": "Feature", "properties": { "fid": 80, "NO": 70, "ENTIDAD": "MORELOS", "MUNICIPIO": "TLAYACAPAN", "PUEBLO\nINDIGENA O\nAFROMEXICANO": "NAHUA", "LOCALIDAD": "TLAYACAPAN", "CLAVE INEGI": 170260001, "TIPO DE\nASENTAMIENTO": "COMUNIDAD INDIGENA", "NOMBRE": "TLAYACAPAN", "MONTO\nASIGNADO\n(PESOS)": 504991, "LATITUD": 18.956617, "LONGITUD": -98.983117 }, "geometry": { "type": "Point", "coordinates": [ -98.983117, 18.956617 ] } },
{ "type": "Feature", "properties": { "fid": 81, "NO": 71, "ENTIDAD": "MORELOS", "MUNICIPIO": "TOTOLAPAN", "PUEBLO\nINDIGENA O\nAFROMEXICANO": "NAHUA", "LOCALIDAD": "BARRIO SAN MARCOS (EL MORAL)", "CLAVE INEGI": 170270021, "TIPO DE\nASENTAMIENTO": "COMUNIDAD INDIGENA", "NOMBRE": "BARRIO SAN MARCOS", "MONTO\nASIGNADO\n(PESOS)": 674972, "LATITUD": 18.988743, "LONGITUD": -98.912361 }, "geometry": { "type": "Point", "coordinates": [ -98.912361, 18.988743 ] } },
{ "type": "Feature", "properties": { "fid": 82, "NO": 72, "ENTIDAD": "MORELOS", "MUNICIPIO": "TOTOLAPAN", "PUEBLO\nINDIGENA O\nAFROMEXICANO": "NAHUA", "LOCALIDAD": "NEPOPUALCO", "CLAVE INEGI": 170270005, "TIPO DE\nASENTAMIENTO": "COMUNIDAD INDIGENA", "NOMBRE": "NEPOPUALCO", "MONTO\nASIGNADO\n(PESOS)": 222870, "LATITUD": 18.99953, "LONGITUD": -98.943502 }, "geometry": { "type": "Point", "coordinates": [ -98.943502, 18.99953 ] } },
{ "type": "Feature", "properties": { "fid": 83, "NO": 73, "ENTIDAD": "MORELOS", "MUNICIPIO": "TOTOLAPAN", "PUEBLO\nINDIGENA O\nAFROMEXICANO": "NAHUA", "LOCALIDAD": "TEPETLIXPITA", "CLAVE INEGI": 170270007, "TIPO DE\nASENTAMIENTO": "COMUNIDAD INDIGENA", "NOMBRE": "TEPETLIXPITA", "MONTO\nASIGNADO\n(PESOS)": 568613, "LATITUD": 18.977823, "LONGITUD": -98.928111 }, "geometry": { "type": "Point", "coordinates": [ -98.928111, 18.977823 ] } },
{ "type": "Feature", "properties": { "fid": 84, "NO": 74, "ENTIDAD": "MORELOS", "MUNICIPIO": "XOCHITEPEC", "PUEBLO\nINDIGENA O\nAFROMEXICANO": "NAHUA", "LOCALIDAD": "ALPUYECA", "CLAVE INEGI": 170280002, "TIPO DE\nASENTAMIENTO": "COMUNIDAD INDIGENA", "NOMBRE": "ALPUYECA", "MONTO\nASIGNADO\n(PESOS)": 6431284, "LATITUD": 18.741133, "LONGITUD": -99.258776 }, "geometry": { "type": "Point", "coordinates": [ -99.258776, 18.741133 ] } },
{ "type": "Feature", "properties": { "fid": 85, "NO": 75, "ENTIDAD": "MORELOS", "MUNICIPIO": "XOCHITEPEC", "PUEBLO\nINDIGENA O\nAFROMEXICANO": "NAHUA", "LOCALIDAD": "ATLACHOLOAYA", "CLAVE INEGI": 170280003, "TIPO DE\nASENTAMIENTO": "COMUNIDAD INDIGENA", "NOMBRE": "ATLACHOLOAYA", "MONTO\nASIGNADO\n(PESOS)": 1555919, "LATITUD": 18.743806, "LONGITUD": -99.225706 }, "geometry": { "type": "Point", "coordinates": [ -99.225706, 18.743806 ] } },
{ "type": "Feature", "properties": { "fid": 86, "NO": 76, "ENTIDAD": "MORELOS", "MUNICIPIO": "XOXOCOTLA", "PUEBLO\nINDIGENA O\nAFROMEXICANO": "NAHUA", "LOCALIDAD": "XOXOCOTLA CENTRO", "CLAVE INEGI": 170350001, "TIPO DE\nASENTAMIENTO": "COMUNIDAD INDIGENA", "NOMBRE": "XOXOCOTLA", "MONTO\nASIGNADO\n(PESOS)": 6887137, "LATITUD": 18.686572, "LONGITUD": -99.244894 }, "geometry": { "type": "Point", "coordinates": [ -99.244894, 18.686572 ] } },
{ "type": "Feature", "properties": { "fid": 87, "NO": 77, "ENTIDAD": "MORELOS", "MUNICIPIO": "YECAPIXTLA", "PUEBLO\nINDIGENA O\nAFROMEXICANO": "NAHUA", "LOCALIDAD": "HUEXCA", "CLAVE INEGI": 170300005, "TIPO DE\nASENTAMIENTO": "COMUNIDAD INDIGENA", "NOMBRE": "HUEXCA", "MONTO\nASIGNADO\n(PESOS)": 1215068, "LATITUD": 18.804962, "LONGITUD": -98.871307 }, "geometry": { "type": "Point", "coordinates": [ -98.871307, 18.804962 ] } },
{ "type": "Feature", "properties": { "fid": 88, "NO": 78, "ENTIDAD": "MORELOS", "MUNICIPIO": "YECAPIXTLA", "PUEBLO\nINDIGENA O\nAFROMEXICANO": "NAHUA", "LOCALIDAD": "XOCHITLAN", "CLAVE INEGI": 170300018, "TIPO DE\nASENTAMIENTO": "COMUNIDAD INDIGENA", "NOMBRE": "XOCHITLÁN", "MONTO\nASIGNADO\n(PESOS)": 87873, "LATITUD": 18.882732, "LONGITUD": -98.817747 }, "geometry": { "type": "Point", "coordinates": [ -98.817747, 18.882732 ] } },
{ "type": "Feature", "properties": { "fid": 89, "NO": 79, "ENTIDAD": "MORELOS", "MUNICIPIO": "YECAPIXTLA", "PUEBLO\nINDIGENA O\nAFROMEXICANO": "NAHUA", "LOCALIDAD": "YECAPIXTLA", "CLAVE INEGI": 170300001, "TIPO DE\nASENTAMIENTO": "COMUNIDAD INDIGENA", "NOMBRE": "ZAHUATLAN", "MONTO\nASIGNADO\n(PESOS)": 188111, "LATITUD": 18.883419, "LONGITUD": -98.868143 }, "geometry": { "type": "Point", "coordinates": [ -98.868143, 18.883419 ] } },
{ "type": "Feature", "properties": { "fid": 90, "NO": 80, "ENTIDAD": "MORELOS", "MUNICIPIO": "ZACATEPEC", "PUEBLO\nINDIGENA O\nAFROMEXICANO": "NAHUA", "LOCALIDAD": "ZACATEPEC DE HIDALGO", "CLAVE INEGI": 170310001, "TIPO DE\nASENTAMIENTO": "COMUNIDAD INDIGENA", "NOMBRE": "TETELPA", "MONTO\nASIGNADO\n(PESOS)": 1190488, "LATITUD": 18.655408, "LONGITUD": -99.194279 }, "geometry": { "type": "Point", "coordinates": [ -99.194279, 18.655408 ] } },
{ "type": "Feature", "properties": { "fid": 91, "NO": 81, "ENTIDAD": "MORELOS", "MUNICIPIO": "ZACUALPAN DE AMILPAS", "PUEBLO\nINDIGENA O\nAFROMEXICANO": "NAHUA", "LOCALIDAD": "TLACOTEPEC", "CLAVE INEGI": 170320006, "TIPO DE\nASENTAMIENTO": "COMUNIDAD INDIGENA", "NOMBRE": "TLACOTEPEC", "MONTO\nASIGNADO\n(PESOS)": 571607, "LATITUD": 19.037349, "LONGITUD": -99.270419 }, "geometry": { "type": "Point", "coordinates": [ -99.270419, 19.037349 ] } },
{ "type": "Feature", "properties": { "fid": 92, "NO": 81, "ENTIDAD": "MORELOS", "MUNICIPIO": "ZACUALPAN DE AMILPAS", "PUEBLO\nINDIGENA O\nAFROMEXICANO": "NAHUA", "LOCALIDAD": "TLACOTEPEC", "CLAVE INEGI": 170320006, "TIPO DE\nASENTAMIENTO": "COMUNIDAD INDIGENA", "NOMBRE": "TLACOTEPEC", "MONTO\nASIGNADO\n(PESOS)": 571607, "LATITUD": 18.814334, "LONGITUD": -98.751613 }, "geometry": { "type": "Point", "coordinates": [ -98.751613, 18.814334 ] } },
{ "type": "Feature", "properties": { "fid": 93, "NO": 82, "ENTIDAD": "MORELOS", "MUNICIPIO": "ZACUALPAN DE AMILPAS", "PUEBLO\nINDIGENA O\nAFROMEXICANO": "NAHUA", "LOCALIDAD": "ZACUALPAN DE AMILPAS", "CLAVE INEGI": 170320001, "TIPO DE\nASENTAMIENTO": "COMUNIDAD INDIGENA", "NOMBRE": "ZACUALPAN DE AMILPAS", "MONTO\nASIGNADO\n(PESOS)": 376221, "LATITUD": 18.784393, "LONGITUD": -98.765423 }, "geometry": { "type": "Point", "coordinates": [ -98.765423, 18.784393 ] } }
]
}
