{
"type": "FeatureCollection",
"name": "edomex_loc_monto",
"crs": { "type": "name", "properties": { "name": "urn:ogc:def:crs:OGC:1.3:CRS84" } },
"features": [
{ "type": "Feature", "properties": { "fid": 1, "NO": 1, "ENTIDAD": "MEXICO", "MUNICIPIO": "ACAMBAYDERUIZCASTAÑEDA", "PUEBLO\nINDIGENAO\nAFROMEXICANO": "OTOMÍ", "LOCALIDAD\n": "BARRIODEGUADALUPE", "CLAVE INEGI": 150010025, "TIPODE\nASENTAMIENTO": "COMUNIDADINDIGENA", "NOMBRE": "BARRIODEGUADALUPE", "MONTO\nASIGNADO\n(PESOS)": 353018, "LATITUD": 19.944634, "LONGITUD": -99.93612 }, "geometry": { "type": "Point", "coordinates": [ -99.93612, 19.944634 ] } },
{ "type": "Feature", "properties": { "fid": 2, "NO": 2, "ENTIDAD": "MEXICO", "MUNICIPIO": "ACAMBAYDERUIZCASTAÑEDA", "PUEBLO\nINDIGENAO\nAFROMEXICANO": "OTOMÍ", "LOCALIDAD\n": "BOSHINDO", "CLAVE INEGI": 150010010, "TIPODE\nASENTAMIENTO": "COMUNIDADINDIGENA", "NOMBRE": "BOSHINDO", "MONTO\nASIGNADO\n(PESOS)": 1147644, "LATITUD": 19.919686, "LONGITUD": -99.842394 }, "geometry": { "type": "Point", "coordinates": [ -99.842394, 19.919686 ] } },
{ "type": "Feature", "properties": { "fid": 3, "NO": 3, "ENTIDAD": "MEXICO", "MUNICIPIO": "ACAMBAYDERUIZCASTAÑEDA", "PUEBLO\nINDIGENAO\nAFROMEXICANO": "OTOMÍ", "LOCALIDAD\n": "BOTI(BOTIAGOSTADERO)", "CLAVE INEGI": 150010080, "TIPODE\nASENTAMIENTO": "COMUNIDADINDIGENA", "NOMBRE": "BOTÍ(BOTÍAGOSTADERO)", "MONTO\nASIGNADO\n(PESOS)": 329575, "LATITUD": 19.986635, "LONGITUD": -99.982937 }, "geometry": { "type": "Point", "coordinates": [ -99.982937, 19.986635 ] } },
{ "type": "Feature", "properties": { "fid": 4, "NO": 4, "ENTIDAD": "MEXICO", "MUNICIPIO": "ACAMBAYDERUIZCASTAÑEDA", "PUEBLO\nINDIGENAO\nAFROMEXICANO": "OTOMÍ", "LOCALIDAD\n": "BUENAVISTA", "CLAVE INEGI": 150010071, "TIPODE\nASENTAMIENTO": "COMUNIDADINDIGENA", "NOMBRE": "BUENAVISTA", "MONTO\nASIGNADO\n(PESOS)": 618163, "LATITUD": 20.009063, "LONGITUD": -99.799396 }, "geometry": { "type": "Point", "coordinates": [ -99.799396, 20.009063 ] } },
{ "type": "Feature", "properties": { "fid": 5, "NO": 5, "ENTIDAD": "MEXICO", "MUNICIPIO": "ACAMBAYDERUIZCASTAÑEDA", "PUEBLO\nINDIGENAO\nAFROMEXICANO": "OTOMÍ", "LOCALIDAD\n": "DATEJE", "CLAVE INEGI": 150010015, "TIPODE\nASENTAMIENTO": "COMUNIDADINDIGENA", "NOMBRE": "DATEJE", "MONTO\nASIGNADO\n(PESOS)": 643671, "LATITUD": 19.994723, "LONGITUD": -99.833279 }, "geometry": { "type": "Point", "coordinates": [ -99.833279, 19.994723 ] } },
{ "type": "Feature", "properties": { "fid": 6, "NO": 6, "ENTIDAD": "MEXICO", "MUNICIPIO": "ACAMBAYDERUIZCASTAÑEDA", "PUEBLO\nINDIGENAO\nAFROMEXICANO": "OTOMÍ", "LOCALIDAD\n": "DETIÑA(SANANTONIODETIÑA)", "CLAVE INEGI": 150010016, "TIPODE\nASENTAMIENTO": "COMUNIDADINDIGENA", "NOMBRE": "DETIÑA", "MONTO\nASIGNADO\n(PESOS)": 1887301, "LATITUD": 19.970902, "LONGITUD": -99.884977 }, "geometry": { "type": "Point", "coordinates": [ -99.884977, 19.970902 ] } },
{ "type": "Feature", "properties": { "fid": 7, "NO": 7, "ENTIDAD": "MEXICO", "MUNICIPIO": "ACAMBAYDERUIZCASTAÑEDA", "PUEBLO\nINDIGENAO\nAFROMEXICANO": "OTOMÍ", "LOCALIDAD\n": "DETIÑAEJIDO", "CLAVE INEGI": 150010059, "TIPODE\nASENTAMIENTO": "COMUNIDADINDIGENA", "NOMBRE": "DETIÑAEJIDO", "MONTO\nASIGNADO\n(PESOS)": 290773, "LATITUD": 20.000186, "LONGITUD": -99.902898 }, "geometry": { "type": "Point", "coordinates": [ -99.902898, 20.000186 ] } },
{ "type": "Feature", "properties": { "fid": 8, "NO": 8, "ENTIDAD": "MEXICO", "MUNICIPIO": "ACAMBAYDERUIZCASTAÑEDA", "PUEBLO\nINDIGENAO\nAFROMEXICANO": "OTOMÍ", "LOCALIDAD\n": "DONGU(DONGUCENTRO)", "CLAVE INEGI": 150010017, "TIPODE\nASENTAMIENTO": "COMUNIDADINDIGENA", "NOMBRE": "DONGUCENTRO", "MONTO\nASIGNADO\n(PESOS)": 606037, "LATITUD": 19.971693, "LONGITUD": -99.868187 }, "geometry": { "type": "Point", "coordinates": [ -99.868187, 19.971693 ] } },
{ "type": "Feature", "properties": { "fid": 9, "NO": 9, "ENTIDAD": "MEXICO", "MUNICIPIO": "ACAMBAYDERUIZCASTAÑEDA", "PUEBLO\nINDIGENAO\nAFROMEXICANO": "OTOMÍ", "LOCALIDAD\n": "DONGUBARRIODOS", "CLAVE INEGI": 150010109, "TIPODE\nASENTAMIENTO": "COMUNIDADINDIGENA", "NOMBRE": "DONGU,BARRIOSEGUNDO", "MONTO\nASIGNADO\n(PESOS)": 542176, "LATITUD": 19.966399, "LONGITUD": -99.850424 }, "geometry": { "type": "Point", "coordinates": [ -99.850424, 19.966399 ] } },
{ "type": "Feature", "properties": { "fid": 10, "NO": 10, "ENTIDAD": "MEXICO", "MUNICIPIO": "ACAMBAYDERUIZCASTAÑEDA", "PUEBLO\nINDIGENAO\nAFROMEXICANO": "OTOMÍ", "LOCALIDAD\n": "DONGUBARRIOUNO", "CLAVE INEGI": 150010108, "TIPODE\nASENTAMIENTO": "COMUNIDADINDIGENA", "NOMBRE": "DONGUBARRIOPRIMERO", "MONTO\nASIGNADO\n(PESOS)": 755585, "LATITUD": 19.971287, "LONGITUD": -99.876604 }, "geometry": { "type": "Point", "coordinates": [ -99.876604, 19.971287 ] } },
{ "type": "Feature", "properties": { "fid": 11, "NO": 11, "ENTIDAD": "MEXICO", "MUNICIPIO": "ACAMBAYDERUIZCASTAÑEDA", "PUEBLO\nINDIGENAO\nAFROMEXICANO": "OTOMÍ", "LOCALIDAD\n": "DONGUPUERTO", "CLAVE INEGI": 150010054, "TIPODE\nASENTAMIENTO": "COMUNIDADINDIGENA", "NOMBRE": "DONGUPUERTO", "MONTO\nASIGNADO\n(PESOS)": 779028, "LATITUD": 19.982097, "LONGITUD": -99.872715 }, "geometry": { "type": "Point", "coordinates": [ -99.872715, 19.982097 ] } },
{ "type": "Feature", "properties": { "fid": 12, "NO": 12, "ENTIDAD": "MEXICO", "MUNICIPIO": "ACAMBAYDERUIZCASTAÑEDA", "PUEBLO\nINDIGENAO\nAFROMEXICANO": "OTOMÍ", "LOCALIDAD\n": "DOXTEJECENTRO", "CLAVE INEGI": 150010064, "TIPODE\nASENTAMIENTO": "COMUNIDADINDIGENA", "NOMBRE": "DOXTEJÉ", "MONTO\nASIGNADO\n(PESOS)": 1087016, "LATITUD": 19.972424, "LONGITUD": -99.951819 }, "geometry": { "type": "Point", "coordinates": [ -99.951819, 19.972424 ] } },
{ "type": "Feature", "properties": { "fid": 13, "NO": 13, "ENTIDAD": "MEXICO", "MUNICIPIO": "ACAMBAYDERUIZCASTAÑEDA", "PUEBLO\nINDIGENAO\nAFROMEXICANO": "OTOMÍ", "LOCALIDAD\n": "GANZDA", "CLAVE INEGI": 150010024, "TIPODE\nASENTAMIENTO": "COMUNIDADINDIGENA", "NOMBRE": "GANZDA", "MONTO\nASIGNADO\n(PESOS)": 1773321, "LATITUD": 19.989112, "LONGITUD": -99.846926 }, "geometry": { "type": "Point", "coordinates": [ -99.846926, 19.989112 ] } },
{ "type": "Feature", "properties": { "fid": 14, "NO": 14, "ENTIDAD": "MEXICO", "MUNICIPIO": "ACAMBAYDERUIZCASTAÑEDA", "PUEBLO\nINDIGENAO\nAFROMEXICANO": "OTOMÍ", "LOCALIDAD\n": "HUAMANGO(LAMESADESANMIGUEL HUAMANGO)", "CLAVE INEGI": 150010123, "TIPODE\nASENTAMIENTO": "COMUNIDADINDIGENA", "NOMBRE": "HUAMANGO", "MONTO\nASIGNADO\n(PESOS)": 250464, "LATITUD": 19.978691, "LONGITUD": -99.868582 }, "geometry": { "type": "Point", "coordinates": [ -99.868582, 19.978691 ] } },
{ "type": "Feature", "properties": { "fid": 15, "NO": 15, "ENTIDAD": "MEXICO", "MUNICIPIO": "ACAMBAYDERUIZCASTAÑEDA", "PUEBLO\nINDIGENAO\nAFROMEXICANO": "OTOMÍ", "LOCALIDAD\n": "LACUMBRE", "CLAVE INEGI": 150010101, "TIPODE\nASENTAMIENTO": "LOCALIDADCONPOBLACION\nINDIGENA", "NOMBRE": "LACUMBRE", "MONTO\nASIGNADO\n(PESOS)": 172752, "LATITUD": 19.972977, "LONGITUD": -99.844943 }, "geometry": { "type": "Point", "coordinates": [ -99.844943, 19.972977 ] } },
{ "type": "Feature", "properties": { "fid": 16, "NO": 16, "ENTIDAD": "MEXICO", "MUNICIPIO": "ACAMBAYDERUIZCASTAÑEDA", "PUEBLO\nINDIGENAO\nAFROMEXICANO": "OTOMÍ", "LOCALIDAD\n": "LAESTANCIASECTORI", "CLAVE INEGI": 150010022, "TIPODE\nASENTAMIENTO": "COMUNIDADINDIGENA", "NOMBRE": "ESTANCIASECTOR1", "MONTO\nASIGNADO\n(PESOS)": 854206, "LATITUD": 19.870555, "LONGITUD": -99.791666 }, "geometry": { "type": "Point", "coordinates": [ -99.791666, 19.870555 ] } },
{ "type": "Feature", "properties": { "fid": 17, "NO": 17, "ENTIDAD": "MEXICO", "MUNICIPIO": "ACAMBAYDERUIZCASTAÑEDA", "PUEBLO\nINDIGENAO\nAFROMEXICANO": "OTOMÍ", "LOCALIDAD\n": "LAESTANCIASECTORII", "CLAVE INEGI": 150010075, "TIPODE\nASENTAMIENTO": "COMUNIDADINDIGENA", "NOMBRE": "LAESTANCIASECTORII", "MONTO\nASIGNADO\n(PESOS)": 530050, "LATITUD": 19.860026, "LONGITUD": -99.783702 }, "geometry": { "type": "Point", "coordinates": [ -99.783702, 19.860026 ] } },
{ "type": "Feature", "properties": { "fid": 18, "NO": 18, "ENTIDAD": "MEXICO", "MUNICIPIO": "ACAMBAYDERUIZCASTAÑEDA", "PUEBLO\nINDIGENAO\nAFROMEXICANO": "OTOMÍ", "LOCALIDAD\n": "LAFLORIDA", "CLAVE INEGI": 150010060, "TIPODE\nASENTAMIENTO": "COMUNIDADINDIGENA", "NOMBRE": "LAFLORIDA", "MONTO\nASIGNADO\n(PESOS)": 319875, "LATITUD": 20.003846, "LONGITUD": -99.882519 }, "geometry": { "type": "Point", "coordinates": [ -99.882519, 20.003846 ] } },
{ "type": "Feature", "properties": { "fid": 19, "NO": 19, "ENTIDAD": "MEXICO", "MUNICIPIO": "ACAMBAYDERUIZCASTAÑEDA", "PUEBLO\nINDIGENAO\nAFROMEXICANO": "OTOMÍ", "LOCALIDAD\n": "LALAGUNA", "CLAVE INEGI": 150010029, "TIPODE\nASENTAMIENTO": "COMUNIDADINDIGENA", "NOMBRE": "LALAGUNA", "MONTO\nASIGNADO\n(PESOS)": 234188, "LATITUD": 19.912377, "LONGITUD": -99.89093 }, "geometry": { "type": "Point", "coordinates": [ -99.89093, 19.912377 ] } },
{ "type": "Feature", "properties": { "fid": 20, "NO": 20, "ENTIDAD": "MEXICO", "MUNICIPIO": "ACAMBAYDERUIZCASTAÑEDA", "PUEBLO\nINDIGENAO\nAFROMEXICANO": "OTOMÍ", "LOCALIDAD\n": "LANOPALERA", "CLAVE INEGI": 150010096, "TIPODE\nASENTAMIENTO": "COMUNIDADINDIGENA", "NOMBRE": "LANOPALERA", "MONTO\nASIGNADO\n(PESOS)": 340914, "LATITUD": 19.97425, "LONGITUD": -99.974409 }, "geometry": { "type": "Point", "coordinates": [ -99.974409, 19.97425 ] } },
{ "type": "Feature", "properties": { "fid": 21, "NO": 21, "ENTIDAD": "MEXICO", "MUNICIPIO": "ACAMBAYDERUIZCASTAÑEDA", "PUEBLO\nINDIGENAO\nAFROMEXICANO": "OTOMÍ", "LOCALIDAD\n": "LAPROVIDENCIA", "CLAVE INEGI": 150010102, "TIPODE\nASENTAMIENTO": "COMUNIDADINDIGENA", "NOMBRE": "LAPROVIDENCIA", "MONTO\nASIGNADO\n(PESOS)": 119399, "LATITUD": 19.966809, "LONGITUD": -99.974001 }, "geometry": { "type": "Point", "coordinates": [ -99.974001, 19.966809 ] } },
{ "type": "Feature", "properties": { "fid": 22, "NO": 22, "ENTIDAD": "MEXICO", "MUNICIPIO": "ACAMBAYDERUIZCASTAÑEDA", "PUEBLO\nINDIGENAO\nAFROMEXICANO": "OTOMÍ", "LOCALIDAD\n": "LASOLEDAD", "CLAVE INEGI": 150010047, "TIPODE\nASENTAMIENTO": "COMUNIDADINDIGENA", "NOMBRE": "LASOLEDAD", "MONTO\nASIGNADO\n(PESOS)": 575319, "LATITUD": 19.922667, "LONGITUD": -99.905792 }, "geometry": { "type": "Point", "coordinates": [ -99.905792, 19.922667 ] } },
{ "type": "Feature", "properties": { "fid": 23, "NO": 23, "ENTIDAD": "MEXICO", "MUNICIPIO": "ACAMBAYDERUIZCASTAÑEDA", "PUEBLO\nINDIGENAO\nAFROMEXICANO": "OTOMÍ", "LOCALIDAD\n": "LATERESA(SANTATERESA)", "CLAVE INEGI": 150010052, "TIPODE\nASENTAMIENTO": "COMUNIDADINDIGENA", "NOMBRE": "LATERESA", "MONTO\nASIGNADO\n(PESOS)": 358676, "LATITUD": 19.989467, "LONGITUD": -99.973275 }, "geometry": { "type": "Point", "coordinates": [ -99.973275, 19.989467 ] } },
{ "type": "Feature", "properties": { "fid": 24, "NO": 24, "ENTIDAD": "MEXICO", "MUNICIPIO": "ACAMBAYDERUIZCASTAÑEDA", "PUEBLO\nINDIGENAO\nAFROMEXICANO": "OTOMÍ", "LOCALIDAD\n": "LASARENAS(SANAGUSTIN)", "CLAVE INEGI": 150010004, "TIPODE\nASENTAMIENTO": "COMUNIDADINDIGENA", "NOMBRE": "SANAGUSTÍNLASARENAS", "MONTO\nASIGNADO\n(PESOS)": 1010790, "LATITUD": 19.988283, "LONGITUD": -99.728787 }, "geometry": { "type": "Point", "coordinates": [ -99.728787, 19.988283 ] } },
{ "type": "Feature", "properties": { "fid": 25, "NO": 25, "ENTIDAD": "MEXICO", "MUNICIPIO": "ACAMBAYDERUIZCASTAÑEDA", "PUEBLO\nINDIGENAO\nAFROMEXICANO": "OTOMÍ", "LOCALIDAD\n": "LOMADESANANGEL", "CLAVE INEGI": 150010057, "TIPODE\nASENTAMIENTO": "COMUNIDADINDIGENA", "NOMBRE": "LOMADESANANGEL", "MONTO\nASIGNADO\n(PESOS)": 509841, "LATITUD": 19.91627, "LONGITUD": -99.898962 }, "geometry": { "type": "Point", "coordinates": [ -99.898962, 19.91627 ] } },
{ "type": "Feature", "properties": { "fid": 26, "NO": 26, "ENTIDAD": "MEXICO", "MUNICIPIO": "ACAMBAYDERUIZCASTAÑEDA", "PUEBLO\nINDIGENAO\nAFROMEXICANO": "OTOMÍ", "LOCALIDAD\n": "LOSPILARES", "CLAVE INEGI": 150010036, "TIPODE\nASENTAMIENTO": "COMUNIDADINDIGENA", "NOMBRE": "LOSPILARES", "MONTO\nASIGNADO\n(PESOS)": 1036089, "LATITUD": 20.005512, "LONGITUD": -99.71911 }, "geometry": { "type": "Point", "coordinates": [ -99.71911, 20.005512 ] } },
{ "type": "Feature", "properties": { "fid": 27, "NO": 27, "ENTIDAD": "MEXICO", "MUNICIPIO": "ACAMBAYDERUIZCASTAÑEDA", "PUEBLO\nINDIGENAO\nAFROMEXICANO": "OTOMÍ", "LOCALIDAD\n": "PUEBLONUEVO", "CLAVE INEGI": 150010037, "TIPODE\nASENTAMIENTO": "COMUNIDADINDIGENA", "NOMBRE": "PUEBLONUEVO", "MONTO\nASIGNADO\n(PESOS)": 3304132, "LATITUD": 19.937252, "LONGITUD": -99.915338 }, "geometry": { "type": "Point", "coordinates": [ -99.915338, 19.937252 ] } },
{ "type": "Feature", "properties": { "fid": 28, "NO": 28, "ENTIDAD": "MEXICO", "MUNICIPIO": "ACAMBAYDERUIZCASTAÑEDA", "PUEBLO\nINDIGENAO\nAFROMEXICANO": "OTOMÍ", "LOCALIDAD\n": "SANFRANCISCOSHAXNI", "CLAVE INEGI": 150010040, "TIPODE\nASENTAMIENTO": "COMUNIDADINDIGENA", "NOMBRE": "SANFRANCISCOSHAXNI", "MONTO\nASIGNADO\n(PESOS)": 2056077, "LATITUD": 20.051603, "LONGITUD": -99.99617 }, "geometry": { "type": "Point", "coordinates": [ -99.99617, 20.051603 ] } },
{ "type": "Feature", "properties": { "fid": 29, "NO": 29, "ENTIDAD": "MEXICO", "MUNICIPIO": "ACAMBAYDERUIZCASTAÑEDA", "PUEBLO\nINDIGENAO\nAFROMEXICANO": "OTOMÍ", "LOCALIDAD\n": "SANFRANCISCOSHAXNIEJIDO", "CLAVE INEGI": 150010065, "TIPODE\nASENTAMIENTO": "COMUNIDADINDIGENA", "NOMBRE": "SANFRANCISCOSHAXNIEJIDO", "MONTO\nASIGNADO\n(PESOS)": 1349683, "LATITUD": 20.07142, "LONGITUD": -99.995468 }, "geometry": { "type": "Point", "coordinates": [ -99.995468, 20.07142 ] } },
{ "type": "Feature", "properties": { "fid": 30, "NO": 30, "ENTIDAD": "MEXICO", "MUNICIPIO": "ACAMBAYDERUIZCASTAÑEDA", "PUEBLO\nINDIGENAO\nAFROMEXICANO": "OTOMÍ", "LOCALIDAD\n": "SANJOSEBOCTO", "CLAVE INEGI": 150010042, "TIPODE\nASENTAMIENTO": "COMUNIDADINDIGENA", "NOMBRE": "SANJOSÉBOCTÓ", "MONTO\nASIGNADO\n(PESOS)": 411220, "LATITUD": 19.920215, "LONGITUD": -99.906288 }, "geometry": { "type": "Point", "coordinates": [ -99.906288, 19.920215 ] } },
{ "type": "Feature", "properties": { "fid": 31, "NO": 31, "ENTIDAD": "MEXICO", "MUNICIPIO": "ACAMBAYDERUIZCASTAÑEDA", "PUEBLO\nINDIGENAO\nAFROMEXICANO": "OTOMÍ", "LOCALIDAD\n": "SANPEDRODELOSMETATES", "CLAVE INEGI": 150010046, "TIPODE\nASENTAMIENTO": "COMUNIDADINDIGENA", "NOMBRE": "SANPEDRODELOSMETATES", "MONTO\nASIGNADO\n(PESOS)": 2237085, "LATITUD": 19.897188, "LONGITUD": -99.858891 }, "geometry": { "type": "Point", "coordinates": [ -99.858891, 19.897188 ] } },
{ "type": "Feature", "properties": { "fid": 32, "NO": 32, "ENTIDAD": "MEXICO", "MUNICIPIO": "ACAMBAYDERUIZCASTAÑEDA", "PUEBLO\nINDIGENAO\nAFROMEXICANO": "OTOMÍ", "LOCALIDAD\n": "SANTAMARIATIXMADEJE(TIXMADEJE GRANDE)", "CLAVE INEGI": 150010048, "TIPODE\nASENTAMIENTO": "COMUNIDADINDIGENA", "NOMBRE": "SANTAMARÍATIXMADEJE", "MONTO\nASIGNADO\n(PESOS)": 6108304, "LATITUD": 19.966698, "LONGITUD": -99.938829 }, "geometry": { "type": "Point", "coordinates": [ -99.938829, 19.966698 ] } },
{ "type": "Feature", "properties": { "fid": 33, "NO": 33, "ENTIDAD": "MEXICO", "MUNICIPIO": "ACULCO", "PUEBLO\nINDIGENAO\nAFROMEXICANO": "OTOMÍ", "LOCALIDAD\n": "ELAZAFRANCENTRO", "CLAVE INEGI": 150030004, "TIPODE\nASENTAMIENTO": "COMUNIDADINDIGENA", "NOMBRE": "ELAZAFRÁNCENTRO", "MONTO\nASIGNADO\n(PESOS)": 766902, "LATITUD": 20.037502, "LONGITUD": -99.718929 }, "geometry": { "type": "Point", "coordinates": [ -99.718929, 20.037502 ] } },
{ "type": "Feature", "properties": { "fid": 34, "NO": 34, "ENTIDAD": "MEXICO", "MUNICIPIO": "ACULCO", "PUEBLO\nINDIGENAO\nAFROMEXICANO": "OTOMÍ", "LOCALIDAD\n": "ELAZAFRANSEGUNDAMANZANA", "CLAVE INEGI": 150030085, "TIPODE\nASENTAMIENTO": "COMUNIDADINDIGENA", "NOMBRE": "ELAZAFRÁNSEGUNDAMANZANA", "MONTO\nASIGNADO\n(PESOS)": 488015, "LATITUD": 20.048585, "LONGITUD": -99.717464 }, "geometry": { "type": "Point", "coordinates": [ -99.717464, 20.048585 ] } },
{ "type": "Feature", "properties": { "fid": 35, "NO": 35, "ENTIDAD": "MEXICO", "MUNICIPIO": "ACULCO", "PUEBLO\nINDIGENAO\nAFROMEXICANO": "OTOMÍ", "LOCALIDAD\n": "ELMOGOTE", "CLAVE INEGI": 150030056, "TIPODE\nASENTAMIENTO": "COMUNIDADINDIGENA", "NOMBRE": "ELMOGOTE", "MONTO\nASIGNADO\n(PESOS)": 848548, "LATITUD": 20.171523, "LONGITUD": -99.912368 }, "geometry": { "type": "Point", "coordinates": [ -99.912368, 20.171523 ] } },
{ "type": "Feature", "properties": { "fid": 36, "NO": 36, "ENTIDAD": "MEXICO", "MUNICIPIO": "ACULCO", "PUEBLO\nINDIGENAO\nAFROMEXICANO": "OTOMÍ", "LOCALIDAD\n": "LACONCEPCIONPUEBLO", "CLAVE INEGI": 150030009, "TIPODE\nASENTAMIENTO": "COMUNIDADINDIGENA", "NOMBRE": "LACONCEPCIÓNPUEBLO", "MONTO\nASIGNADO\n(PESOS)": 1431339, "LATITUD": 20.146823, "LONGITUD": -99.925011 }, "geometry": { "type": "Point", "coordinates": [ -99.925011, 20.146823 ] } },
{ "type": "Feature", "properties": { "fid": 37, "NO": 37, "ENTIDAD": "MEXICO", "MUNICIPIO": "ACULCO", "PUEBLO\nINDIGENAO\nAFROMEXICANO": "OTOMÍ", "LOCALIDAD\n": "LAPRESITASEGUNDOCUARTEL", "CLAVE INEGI": 150030083, "TIPODE\nASENTAMIENTO": "COMUNIDADINDIGENA", "NOMBRE": "SANLUCASSEGUNDOCUARTEL", "MONTO\nASIGNADO\n(PESOS)": 701425, "LATITUD": 20.161519, "LONGITUD": -99.872573 }, "geometry": { "type": "Point", "coordinates": [ -99.872573, 20.161519 ] } },
{ "type": "Feature", "properties": { "fid": 38, "NO": 38, "ENTIDAD": "MEXICO", "MUNICIPIO": "ACULCO", "PUEBLO\nINDIGENAO\nAFROMEXICANO": "OTOMÍ", "LOCALIDAD\n": "ÑADOBUENAVISTA", "CLAVE INEGI": 150030017, "TIPODE\nASENTAMIENTO": "COMUNIDADINDIGENA", "NOMBRE": "ÑADOBUENAVISTA", "MONTO\nASIGNADO\n(PESOS)": 1043364, "LATITUD": 20.054698, "LONGITUD": -99.857551 }, "geometry": { "type": "Point", "coordinates": [ -99.857551, 20.054698 ] } },
{ "type": "Feature", "properties": { "fid": 39, "NO": 39, "ENTIDAD": "MEXICO", "MUNICIPIO": "ACULCO", "PUEBLO\nINDIGENAO\nAFROMEXICANO": "OTOMÍ", "LOCALIDAD\n": "PRESADELTEPOZAN", "CLAVE INEGI": 150030018, "TIPODE\nASENTAMIENTO": "COMUNIDADINDIGENA", "NOMBRE": "ELTEPOZÁN", "MONTO\nASIGNADO\n(PESOS)": 313408, "LATITUD": 20.200702, "LONGITUD": -99.955893 }, "geometry": { "type": "Point", "coordinates": [ -99.955893, 20.200702 ] } },
{ "type": "Feature", "properties": { "fid": 40, "NO": 40, "ENTIDAD": "MEXICO", "MUNICIPIO": "ACULCO", "PUEBLO\nINDIGENAO\nAFROMEXICANO": "OTOMÍ", "LOCALIDAD\n": "SANANTONIOPUEBLO", "CLAVE INEGI": 150030055, "TIPODE\nASENTAMIENTO": "COMUNIDADINDIGENA", "NOMBRE": "SANANTONIOPUEBLO", "MONTO\nASIGNADO\n(PESOS)": 950195, "LATITUD": 20.117015, "LONGITUD": -99.917976 }, "geometry": { "type": "Point", "coordinates": [ -99.917976, 20.117015 ] } },
{ "type": "Feature", "properties": { "fid": 41, "NO": 41, "ENTIDAD": "MEXICO", "MUNICIPIO": "ACULCO", "PUEBLO\nINDIGENAO\nAFROMEXICANO": "OTOMÍ", "LOCALIDAD\n": "SANLUCASTOTOLMALOYA", "CLAVE INEGI": 150030024, "TIPODE\nASENTAMIENTO": "COMUNIDADINDIGENA", "NOMBRE": "SANLUCASTOTOLMALOYA", "MONTO\nASIGNADO\n(PESOS)": 2926624, "LATITUD": 20.163502, "LONGITUD": -99.896503 }, "geometry": { "type": "Point", "coordinates": [ -99.896503, 20.163502 ] } },
{ "type": "Feature", "properties": { "fid": 42, "NO": 42, "ENTIDAD": "MEXICO", "MUNICIPIO": "ACULCO", "PUEBLO\nINDIGENAO\nAFROMEXICANO": "OTOMÍ", "LOCALIDAD\n": "SANMARTINEJIDO", "CLAVE INEGI": 150030025, "TIPODE\nASENTAMIENTO": "COMUNIDADINDIGENA", "NOMBRE": "SANMARTINEJIDO", "MONTO\nASIGNADO\n(PESOS)": 1762004, "LATITUD": 20.074626, "LONGITUD": -99.698561 }, "geometry": { "type": "Point", "coordinates": [ -99.698561, 20.074626 ] } },
{ "type": "Feature", "properties": { "fid": 43, "NO": 43, "ENTIDAD": "MEXICO", "MUNICIPIO": "ACULCO", "PUEBLO\nINDIGENAO\nAFROMEXICANO": "OTOMÍ", "LOCALIDAD\n": "SANPEDRODENXHISEGUNDOCUARTEL", "CLAVE INEGI": 150030089, "TIPODE\nASENTAMIENTO": "COMUNIDADINDIGENA", "NOMBRE": "SANPEDRODENXHISEGUNDOCUARTEL", "MONTO\nASIGNADO\n(PESOS)": 646456, "LATITUD": 20.224531, "LONGITUD": -99.959307 }, "geometry": { "type": "Point", "coordinates": [ -99.959307, 20.224531 ] } },
{ "type": "Feature", "properties": { "fid": 44, "NO": 44, "ENTIDAD": "MEXICO", "MUNICIPIO": "ACULCO", "PUEBLO\nINDIGENAO\nAFROMEXICANO": "OTOMÍ", "LOCALIDAD\n": "SANTIAGOOXTOCTOXHIE", "CLAVE INEGI": 150030031, "TIPODE\nASENTAMIENTO": "COMUNIDADINDIGENA", "NOMBRE": "SANTIAGOOXTOCTOXHIÉ", "MONTO\nASIGNADO\n(PESOS)": 1669712, "LATITUD": 20.0171, "LONGITUD": -99.847276 }, "geometry": { "type": "Point", "coordinates": [ -99.847276, 20.0171 ] } },
{ "type": "Feature", "properties": { "fid": 45, "NO": 45, "ENTIDAD": "MEXICO", "MUNICIPIO": "ALMOLOYADEJUAREZ", "PUEBLO\nINDIGENAO\nAFROMEXICANO": "MAZAHUA", "LOCALIDAD\n": "BARRIODELACABECERAPRIMERASECCION", "CLAVE INEGI": 150050099, "TIPODE\nASENTAMIENTO": "COMUNIDADINDIGENA", "NOMBRE": "BARRIODELACABECERAPRIMERASECCIÓN", "MONTO\nASIGNADO\n(PESOS)": 84639, "LATITUD": 19.35923, "LONGITUD": -99.743638 }, "geometry": { "type": "Point", "coordinates": [ -99.743638, 19.35923 ] } },
{ "type": "Feature", "properties": { "fid": 46, "NO": 46, "ENTIDAD": "MEXICO", "MUNICIPIO": "ALMOLOYADEJUAREZ", "PUEBLO\nINDIGENAO\nAFROMEXICANO": "MAZAHUA", "LOCALIDAD\n": "BARRIODELACABECERATERCERASECCION", "CLAVE INEGI": 150050100, "TIPODE\nASENTAMIENTO": "COMUNIDADINDIGENA", "NOMBRE": "BARRIODELACABECERATERCERASECCIÓN", "MONTO\nASIGNADO\n(PESOS)": 2075651, "LATITUD": 19.374379, "LONGITUD": -99.754235 }, "geometry": { "type": "Point", "coordinates": [ -99.754235, 19.374379 ] } },
{ "type": "Feature", "properties": { "fid": 47, "NO": 47, "ENTIDAD": "MEXICO", "MUNICIPIO": "ALMOLOYADEJUAREZ", "PUEBLO\nINDIGENAO\nAFROMEXICANO": "MAZAHUA", "LOCALIDAD\n": "BENITOJUAREZ", "CLAVE INEGI": 150050003, "TIPODE\nASENTAMIENTO": "COMUNIDADINDIGENA", "NOMBRE": "BENITOJUÁREZ", "MONTO\nASIGNADO\n(PESOS)": 2044125, "LATITUD": 19.440385, "LONGITUD": -99.859926 }, "geometry": { "type": "Point", "coordinates": [ -99.859926, 19.440385 ] } },
{ "type": "Feature", "properties": { "fid": 48, "NO": 48, "ENTIDAD": "MEXICO", "MUNICIPIO": "ALMOLOYADEJUAREZ", "PUEBLO\nINDIGENAO\nAFROMEXICANO": "MAZAHUA", "LOCALIDAD\n": "CASANUEVA(CASANUEVAYEBUCIVI)", "CLAVE INEGI": 150050101, "TIPODE\nASENTAMIENTO": "COMUNIDADINDIGENA", "NOMBRE": "CASANUEVA", "MONTO\nASIGNADO\n(PESOS)": 916277, "LATITUD": 19.490439, "LONGITUD": -99.915907 }, "geometry": { "type": "Point", "coordinates": [ -99.915907, 19.490439 ] } },
{ "type": "Feature", "properties": { "fid": 49, "NO": 49, "ENTIDAD": "MEXICO", "MUNICIPIO": "ALMOLOYADEJUAREZ", "PUEBLO\nINDIGENAO\nAFROMEXICANO": "MAZAHUA", "LOCALIDAD\n": "COLONIALAZAROCARDENAS(LATRAMPA)", "CLAVE INEGI": 150050109, "TIPODE\nASENTAMIENTO": "COMUNIDADINDIGENA", "NOMBRE": "LÁZAROCÁRDENAS", "MONTO\nASIGNADO\n(PESOS)": 405562, "LATITUD": 19.500303, "LONGITUD": -99.847345 }, "geometry": { "type": "Point", "coordinates": [ -99.847345, 19.500303 ] } },
{ "type": "Feature", "properties": { "fid": 50, "NO": 50, "ENTIDAD": "MEXICO", "MUNICIPIO": "ALMOLOYADEJUAREZ", "PUEBLO\nINDIGENAO\nAFROMEXICANO": "MAZAHUA", "LOCALIDAD\n": "EJIDODESANPEDRO", "CLAVE INEGI": 150050038, "TIPODE\nASENTAMIENTO": "COMUNIDADINDIGENA", "NOMBRE": "EJIDOSANPEDRO", "MONTO\nASIGNADO\n(PESOS)": 1663383, "LATITUD": 19.394131, "LONGITUD": -99.773659 }, "geometry": { "type": "Point", "coordinates": [ -99.773659, 19.394131 ] } },
{ "type": "Feature", "properties": { "fid": 51, "NO": 51, "ENTIDAD": "MEXICO", "MUNICIPIO": "ALMOLOYADEJUAREZ", "PUEBLO\nINDIGENAO\nAFROMEXICANO": "MAZAHUA", "LOCALIDAD\n": "EJIDOSANTAMARIANATIVITAS(EJIDOTRES BARRANCAS)", "CLAVE INEGI": 150050087, "TIPODE\nASENTAMIENTO": "COMUNIDADINDIGENA", "NOMBRE": "EJIDODESANTAMARÍANATIVITAS", "MONTO\nASIGNADO\n(PESOS)": 2093196, "LATITUD": 19.335694, "LONGITUD": -99.794284 }, "geometry": { "type": "Point", "coordinates": [ -99.794284, 19.335694 ] } },
{ "type": "Feature", "properties": { "fid": 52, "NO": 52, "ENTIDAD": "MEXICO", "MUNICIPIO": "ALMOLOYADEJUAREZ", "PUEBLO\nINDIGENAO\nAFROMEXICANO": "MAZAHUA", "LOCALIDAD\n": "ELPLAN", "CLAVE INEGI": 150050146, "TIPODE\nASENTAMIENTO": "COMUNIDADINDIGENA", "NOMBRE": "ELPLANDESANMIGUEL", "MONTO\nASIGNADO\n(PESOS)": 1103184, "LATITUD": 19.374674, "LONGITUD": -99.800307 }, "geometry": { "type": "Point", "coordinates": [ -99.800307, 19.374674 ] } },
{ "type": "Feature", "properties": { "fid": 53, "NO": 53, "ENTIDAD": "MEXICO", "MUNICIPIO": "ALMOLOYADEJUAREZ", "PUEBLO\nINDIGENAO\nAFROMEXICANO": "MAZAHUA", "LOCALIDAD\n": "ELTEPETATAL", "CLAVE INEGI": 150050129, "TIPODE\nASENTAMIENTO": "COMUNIDADINDIGENA", "NOMBRE": "ELTEPETATAL", "MONTO\nASIGNADO\n(PESOS)": 1082166, "LATITUD": 19.342386, "LONGITUD": -99.771932 }, "geometry": { "type": "Point", "coordinates": [ -99.771932, 19.342386 ] } },
{ "type": "Feature", "properties": { "fid": 54, "NO": 54, "ENTIDAD": "MEXICO", "MUNICIPIO": "ALMOLOYADEJUAREZ", "PUEBLO\nINDIGENAO\nAFROMEXICANO": "MAZAHUA", "LOCALIDAD\n": "LASOLEDADOCOYOTEPEC", "CLAVE INEGI": 150050085, "TIPODE\nASENTAMIENTO": "COMUNIDADINDIGENA", "NOMBRE": "LASOLEDADOCOYOTEPEC", "MONTO\nASIGNADO\n(PESOS)": 559502, "LATITUD": 19.525646, "LONGITUD": -99.856483 }, "geometry": { "type": "Point", "coordinates": [ -99.856483, 19.525646 ] } },
{ "type": "Feature", "properties": { "fid": 55, "NO": 55, "ENTIDAD": "MEXICO", "MUNICIPIO": "ALMOLOYADEJUAREZ", "PUEBLO\nINDIGENAO\nAFROMEXICANO": "MAZAHUA", "LOCALIDAD\n": "LATINAJA", "CLAVE INEGI": 150050047, "TIPODE\nASENTAMIENTO": "COMUNIDADINDIGENA", "NOMBRE": "LATINAJA", "MONTO\nASIGNADO\n(PESOS)": 179219, "LATITUD": 19.377947, "LONGITUD": -99.911591 }, "geometry": { "type": "Point", "coordinates": [ -99.911591, 19.377947 ] } },
{ "type": "Feature", "properties": { "fid": 56, "NO": 56, "ENTIDAD": "MEXICO", "MUNICIPIO": "ALMOLOYADEJUAREZ", "PUEBLO\nINDIGENAO\nAFROMEXICANO": "MAZAHUA", "LOCALIDAD\n": "LAGUNADETABERNILLAS(ELRESBALOSO)", "CLAVE INEGI": 150050136, "TIPODE\nASENTAMIENTO": "COMUNIDADINDIGENA", "NOMBRE": "LAGUNADETABERNILLAS", "MONTO\nASIGNADO\n(PESOS)": 1373179, "LATITUD": 19.461915, "LONGITUD": -99.87881 }, "geometry": { "type": "Point", "coordinates": [ -99.87881, 19.461915 ] } },
{ "type": "Feature", "properties": { "fid": 57, "NO": 57, "ENTIDAD": "MEXICO", "MUNICIPIO": "ALMOLOYADEJUAREZ", "PUEBLO\nINDIGENAO\nAFROMEXICANO": "MAZAHUA", "LOCALIDAD\n": "MEXTEPEC(EX-HACIENDAMEXTEPEC)", "CLAVE INEGI": 150050017, "TIPODE\nASENTAMIENTO": "COMUNIDADINDIGENA", "NOMBRE": "EX-HACIENDAMEXTEPEC(MEXTEPEC)", "MONTO\nASIGNADO\n(PESOS)": 190164, "LATITUD": 19.460477, "LONGITUD": -99.891344 }, "geometry": { "type": "Point", "coordinates": [ -99.891344, 19.460477 ] } },
{ "type": "Feature", "properties": { "fid": 58, "NO": 58, "ENTIDAD": "MEXICO", "MUNICIPIO": "ALMOLOYADEJUAREZ", "PUEBLO\nINDIGENAO\nAFROMEXICANO": "MAZAHUA", "LOCALIDAD\n": "OCOYOTEPEC(OCOYOTEPECCENTRO)", "CLAVE INEGI": 150050019, "TIPODE\nASENTAMIENTO": "COMUNIDADINDIGENA", "NOMBRE": "OCOYOTEPECCENTRO", "MONTO\nASIGNADO\n(PESOS)": 1799279, "LATITUD": 19.495, "LONGITUD": -99.842222 }, "geometry": { "type": "Point", "coordinates": [ -99.842222, 19.495 ] } },
{ "type": "Feature", "properties": { "fid": 59, "NO": 59, "ENTIDAD": "MEXICO", "MUNICIPIO": "ALMOLOYADEJUAREZ", "PUEBLO\nINDIGENAO\nAFROMEXICANO": "MAZAHUA", "LOCALIDAD\n": "PALOSAMARILLOS(PALOSAMARILLOS YEBUCIVI)", "CLAVE INEGI": 150050090, "TIPODE\nASENTAMIENTO": "COMUNIDADINDIGENA", "NOMBRE": "PALOSAMARILLOS", "MONTO\nASIGNADO\n(PESOS)": 2190114, "LATITUD": 19.539358, "LONGITUD": -99.91673 }, "geometry": { "type": "Point", "coordinates": [ -99.91673, 19.539358 ] } },
{ "type": "Feature", "properties": { "fid": 60, "NO": 60, "ENTIDAD": "MEXICO", "MUNICIPIO": "ALMOLOYADEJUAREZ", "PUEBLO\nINDIGENAO\nAFROMEXICANO": "MAZAHUA", "LOCALIDAD\n": "POTEJESUR", "CLAVE INEGI": 150050027, "TIPODE\nASENTAMIENTO": "COMUNIDADINDIGENA", "NOMBRE": "SANAGUSTÍNPOTEJESUR", "MONTO\nASIGNADO\n(PESOS)": 1978408, "LATITUD": 19.31574, "LONGITUD": -99.849091 }, "geometry": { "type": "Point", "coordinates": [ -99.849091, 19.31574 ] } },
{ "type": "Feature", "properties": { "fid": 61, "NO": 61, "ENTIDAD": "MEXICO", "MUNICIPIO": "ALMOLOYADEJUAREZ", "PUEBLO\nINDIGENAO\nAFROMEXICANO": "MAZAHUA", "LOCALIDAD\n": "RIOFRIO(RIOFRIOYEBUCIVI)", "CLAVE INEGI": 150050089, "TIPODE\nASENTAMIENTO": "COMUNIDADINDIGENA", "NOMBRE": "RÍOFRÍO", "MONTO\nASIGNADO\n(PESOS)": 777411, "LATITUD": 19.510558, "LONGITUD": -99.928684 }, "geometry": { "type": "Point", "coordinates": [ -99.928684, 19.510558 ] } },
{ "type": "Feature", "properties": { "fid": 62, "NO": 62, "ENTIDAD": "MEXICO", "MUNICIPIO": "ALMOLOYADEJUAREZ", "PUEBLO\nINDIGENAO\nAFROMEXICANO": "MAZAHUA", "LOCALIDAD\n": "SANAGUSTINCITLALI", "CLAVE INEGI": 150050008, "TIPODE\nASENTAMIENTO": "COMUNIDADINDIGENA", "NOMBRE": "SANAGUSTÍNCITLALI", "MONTO\nASIGNADO\n(PESOS)": 1556678, "LATITUD": 19.482938, "LONGITUD": -99.796255 }, "geometry": { "type": "Point", "coordinates": [ -99.796255, 19.482938 ] } },
{ "type": "Feature", "properties": { "fid": 63, "NO": 63, "ENTIDAD": "MEXICO", "MUNICIPIO": "ALMOLOYADEJUAREZ", "PUEBLO\nINDIGENAO\nAFROMEXICANO": "OTOMÍ", "LOCALIDAD\n": "SANFRANCISCOTLALCILALCALPAN", "CLAVE INEGI": 150050032, "TIPODE\nASENTAMIENTO": "COMUNIDADINDIGENA", "NOMBRE": "SANFRANCISCOTLALCILALCALPAN", "MONTO\nASIGNADO\n(PESOS)": 7276966, "LATITUD": 19.293397, "LONGITUD": -99.768395 }, "geometry": { "type": "Point", "coordinates": [ -99.768395, 19.293397 ] } },
{ "type": "Feature", "properties": { "fid": 64, "NO": 64, "ENTIDAD": "MEXICO", "MUNICIPIO": "ALMOLOYADEJUAREZ", "PUEBLO\nINDIGENAO\nAFROMEXICANO": "MAZAHUA", "LOCALIDAD\n": "SANLORENZOCUAUHTENCO", "CLAVE INEGI": 150050033, "TIPODE\nASENTAMIENTO": "COMUNIDADINDIGENA", "NOMBRE": "SANLORENZOCUAUHTENCO", "MONTO\nASIGNADO\n(PESOS)": 1899427, "LATITUD": 19.369434, "LONGITUD": -99.784862 }, "geometry": { "type": "Point", "coordinates": [ -99.784862, 19.369434 ] } },
{ "type": "Feature", "properties": { "fid": 65, "NO": 65, "ENTIDAD": "MEXICO", "MUNICIPIO": "ALMOLOYADEJUAREZ", "PUEBLO\nINDIGENAO\nAFROMEXICANO": "MAZAHUA", "LOCALIDAD\n": "SANPEDRODELAHORTALIZA(EJIDO ALMOLOYAN)", "CLAVE INEGI": 150050039, "TIPODE\nASENTAMIENTO": "COMUNIDADINDIGENA", "NOMBRE": "SANPEDRODELAHORTALIZA", "MONTO\nASIGNADO\n(PESOS)": 3731520, "LATITUD": 19.387494, "LONGITUD": -99.816938 }, "geometry": { "type": "Point", "coordinates": [ -99.816938, 19.387494 ] } },
{ "type": "Feature", "properties": { "fid": 66, "NO": 66, "ENTIDAD": "MEXICO", "MUNICIPIO": "ALMOLOYADEJUAREZ", "PUEBLO\nINDIGENAO\nAFROMEXICANO": "MAZAHUA", "LOCALIDAD\n": "SANTAJUANACENTRO(LAPALMA)", "CLAVE INEGI": 150050113, "TIPODE\nASENTAMIENTO": "COMUNIDADINDIGENA", "NOMBRE": "SANTAJUANACENTRO", "MONTO\nASIGNADO\n(PESOS)": 2084543, "LATITUD": 19.42727, "LONGITUD": -99.750933 }, "geometry": { "type": "Point", "coordinates": [ -99.750933, 19.42727 ] } },
{ "type": "Feature", "properties": { "fid": 67, "NO": 67, "ENTIDAD": "MEXICO", "MUNICIPIO": "ALMOLOYADEJUAREZ", "PUEBLO\nINDIGENAO\nAFROMEXICANO": "MAZAHUA", "LOCALIDAD\n": "SANTAMARIANATIVITAS", "CLAVE INEGI": 150050044, "TIPODE\nASENTAMIENTO": "COMUNIDADINDIGENA", "NOMBRE": "SANTAMARÍANATIVITAS", "MONTO\nASIGNADO\n(PESOS)": 130716, "LATITUD": 19.358855, "LONGITUD": -99.771694 }, "geometry": { "type": "Point", "coordinates": [ -99.771694, 19.358855 ] } },
{ "type": "Feature", "properties": { "fid": 68, "NO": 68, "ENTIDAD": "MEXICO", "MUNICIPIO": "ALMOLOYADEJUAREZ", "PUEBLO\nINDIGENAO\nAFROMEXICANO": "MAZAHUA", "LOCALIDAD\n": "SANTIAGUITOTLALCILALCALLI", "CLAVE INEGI": 150050045, "TIPODE\nASENTAMIENTO": "COMUNIDADINDIGENA", "NOMBRE": "SANTIAGUITOTLALCILALCALLI", "MONTO\nASIGNADO\n(PESOS)": 306132, "LATITUD": 19.339859, "LONGITUD": -99.728942 }, "geometry": { "type": "Point", "coordinates": [ -99.728942, 19.339859 ] } },
{ "type": "Feature", "properties": { "fid": 69, "NO": 69, "ENTIDAD": "MEXICO", "MUNICIPIO": "ALMOLOYADEJUAREZ", "PUEBLO\nINDIGENAO\nAFROMEXICANO": "MAZAHUA", "LOCALIDAD\n": "TABERNILLAS(SANTACATARINA)", "CLAVE INEGI": 150050040, "TIPODE\nASENTAMIENTO": "COMUNIDADINDIGENA", "NOMBRE": "SANTACATARINATABERNILLAS", "MONTO\nASIGNADO\n(PESOS)": 3801195, "LATITUD": 19.481933, "LONGITUD": -99.867458 }, "geometry": { "type": "Point", "coordinates": [ -99.867458, 19.481933 ] } },
{ "type": "Feature", "properties": { "fid": 70, "NO": 70, "ENTIDAD": "MEXICO", "MUNICIPIO": "ALMOLOYADEJUAREZ", "PUEBLO\nINDIGENAO\nAFROMEXICANO": "MAZAHUA", "LOCALIDAD\n": "YEBUCIVICENTRO(YEBUCIVI)", "CLAVE INEGI": 150050049, "TIPODE\nASENTAMIENTO": "COMUNIDADINDIGENA", "NOMBRE": "YEBUCIVI", "MONTO\nASIGNADO\n(PESOS)": 4084682, "LATITUD": 19.506451, "LONGITUD": -99.907759 }, "geometry": { "type": "Point", "coordinates": [ -99.907759, 19.506451 ] } },
{ "type": "Feature", "properties": { "fid": 71, "NO": 71, "ENTIDAD": "MEXICO", "MUNICIPIO": "AMANALCO", "PUEBLO\nINDIGENAO\nAFROMEXICANO": "OTOMÍ", "LOCALIDAD\n": "SANJERONIMO", "CLAVE INEGI": 150070012, "TIPODE\nASENTAMIENTO": "COMUNIDADINDIGENA", "NOMBRE": "SANJERÓNIMO", "MONTO\nASIGNADO\n(PESOS)": 570230, "LATITUD": 19.246907, "LONGITUD": -100.020665 }, "geometry": { "type": "Point", "coordinates": [ -100.020665, 19.246907 ] } },
{ "type": "Feature", "properties": { "fid": 72, "NO": 72, "ENTIDAD": "MEXICO", "MUNICIPIO": "AMANALCO", "PUEBLO\nINDIGENAO\nAFROMEXICANO": "OTOMÍ", "LOCALIDAD\n": "SANJUAN", "CLAVE INEGI": 150070013, "TIPODE\nASENTAMIENTO": "COMUNIDADINDIGENA", "NOMBRE": "SANJUAN", "MONTO\nASIGNADO\n(PESOS)": 765855, "LATITUD": 19.248434, "LONGITUD": -100.03029 }, "geometry": { "type": "Point", "coordinates": [ -100.03029, 19.248434 ] } },
{ "type": "Feature", "properties": { "fid": 73, "NO": 73, "ENTIDAD": "MEXICO", "MUNICIPIO": "AMANALCO", "PUEBLO\nINDIGENAO\nAFROMEXICANO": "OTOMÍ", "LOCALIDAD\n": "SANLUCAS", "CLAVE INEGI": 150070014, "TIPODE\nASENTAMIENTO": "COMUNIDADINDIGENA", "NOMBRE": "SANLUCAS", "MONTO\nASIGNADO\n(PESOS)": 796573, "LATITUD": 19.258827, "LONGITUD": -99.997691 }, "geometry": { "type": "Point", "coordinates": [ -99.997691, 19.258827 ] } },
{ "type": "Feature", "properties": { "fid": 74, "NO": 74, "ENTIDAD": "MEXICO", "MUNICIPIO": "AMANALCO", "PUEBLO\nINDIGENAO\nAFROMEXICANO": "OTOMÍ", "LOCALIDAD\n": "SANMATEO", "CLAVE INEGI": 150070015, "TIPODE\nASENTAMIENTO": "COMUNIDADINDIGENA", "NOMBRE": "SANMATEO", "MONTO\nASIGNADO\n(PESOS)": 2587678, "LATITUD": 19.280788, "LONGITUD": -100.015011 }, "geometry": { "type": "Point", "coordinates": [ -100.015011, 19.280788 ] } },
{ "type": "Feature", "properties": { "fid": 75, "NO": 75, "ENTIDAD": "MEXICO", "MUNICIPIO": "AMANALCO", "PUEBLO\nINDIGENAO\nAFROMEXICANO": "OTOMÍ", "LOCALIDAD\n": "SANMIGUEL(SANMIGUELTENEXTEPEC)", "CLAVE INEGI": 150070016, "TIPODE\nASENTAMIENTO": "COMUNIDADINDIGENA", "NOMBRE": "SANMIGUELTENEXTEPEC", "MONTO\nASIGNADO\n(PESOS)": 913217, "LATITUD": 19.263532, "LONGITUD": -100.02912 }, "geometry": { "type": "Point", "coordinates": [ -100.02912, 19.263532 ] } },
{ "type": "Feature", "properties": { "fid": 76, "NO": 76, "ENTIDAD": "MEXICO", "MUNICIPIO": "AMANALCO", "PUEBLO\nINDIGENAO\nAFROMEXICANO": "OTOMÍ", "LOCALIDAD\n": "SANSEBASTIANELCHICO", "CLAVE INEGI": 150070017, "TIPODE\nASENTAMIENTO": "COMUNIDADINDIGENA", "NOMBRE": "SANSEBASTIÁNELCHICO", "MONTO\nASIGNADO\n(PESOS)": 532476, "LATITUD": 19.269166, "LONGITUD": -100.021055 }, "geometry": { "type": "Point", "coordinates": [ -100.021055, 19.269166 ] } },
{ "type": "Feature", "properties": { "fid": 77, "NO": 77, "ENTIDAD": "MEXICO", "MUNICIPIO": "AMANALCO", "PUEBLO\nINDIGENAO\nAFROMEXICANO": "OTOMÍ", "LOCALIDAD\n": "SANSEBASTIANELGRANDE", "CLAVE INEGI": 150070018, "TIPODE\nASENTAMIENTO": "COMUNIDADINDIGENA", "NOMBRE": "SANSEBASTIÁNELGRANDE", "MONTO\nASIGNADO\n(PESOS)": 867140, "LATITUD": 19.296249, "LONGITUD": -100.055983 }, "geometry": { "type": "Point", "coordinates": [ -100.055983, 19.296249 ] } },
{ "type": "Feature", "properties": { "fid": 78, "NO": 78, "ENTIDAD": "MEXICO", "MUNICIPIO": "ATIZAPAN", "PUEBLO\nINDIGENAO\nAFROMEXICANO": "MATLATZINCA", "LOCALIDAD\n": "SANTACRUZATIZAPAN", "CLAVE INEGI": 150120001, "TIPODE\nASENTAMIENTO": "COMUNIDADINDIGENA", "NOMBRE": "SANTACRUZ", "MONTO\nASIGNADO\n(PESOS)": 2129663, "LATITUD": 19.176757, "LONGITUD": -99.487942 }, "geometry": { "type": "Point", "coordinates": [ -99.487942, 19.176757 ] } },
{ "type": "Feature", "properties": { "fid": 79, "NO": 79, "ENTIDAD": "MEXICO", "MUNICIPIO": "ATLACOMULCO", "PUEBLO\nINDIGENAO\nAFROMEXICANO": "MAZAHUA", "LOCALIDAD\n": "BOBASHIDEGUADALUPE", "CLAVE INEGI": 150140004, "TIPODE\nASENTAMIENTO": "COMUNIDADINDIGENA", "NOMBRE": "BABASHIDEGUADALUPE", "MONTO\nASIGNADO\n(PESOS)": 1799997, "LATITUD": 19.875616, "LONGITUD": -99.911848 }, "geometry": { "type": "Point", "coordinates": [ -99.911848, 19.875616 ] } },
{ "type": "Feature", "properties": { "fid": 80, "NO": 80, "ENTIDAD": "MEXICO", "MUNICIPIO": "ATLACOMULCO", "PUEBLO\nINDIGENAO\nAFROMEXICANO": "MAZAHUA", "LOCALIDAD\n": "BOMBATEVIEJIDO(EJIDOSANTACRUZ BOMBATEVI)", "CLAVE INEGI": 150140084, "TIPODE\nASENTAMIENTO": "COMUNIDADINDIGENA", "NOMBRE": "BOMBATEVIEJIDO", "MONTO\nASIGNADO\n(PESOS)": 396670, "LATITUD": 19.82565, "LONGITUD": -99.888382 }, "geometry": { "type": "Point", "coordinates": [ -99.888382, 19.82565 ] } },
{ "type": "Feature", "properties": { "fid": 81, "NO": 81, "ENTIDAD": "MEXICO", "MUNICIPIO": "ATLACOMULCO", "PUEBLO\nINDIGENAO\nAFROMEXICANO": "MAZAHUA", "LOCALIDAD\n": "DOLORESLAJOYA", "CLAVE INEGI": 150140017, "TIPODE\nASENTAMIENTO": "COMUNIDADINDIGENA", "NOMBRE": "DOLORESLAJOYA", "MONTO\nASIGNADO\n(PESOS)": 972228, "LATITUD": 19.812621, "LONGITUD": -99.831815 }, "geometry": { "type": "Point", "coordinates": [ -99.831815, 19.812621 ] } },
{ "type": "Feature", "properties": { "fid": 82, "NO": 82, "ENTIDAD": "MEXICO", "MUNICIPIO": "ATLACOMULCO", "PUEBLO\nINDIGENAO\nAFROMEXICANO": "MAZAHUA", "LOCALIDAD\n": "ELRINCONDELACANDELARIA", "CLAVE INEGI": 150140032, "TIPODE\nASENTAMIENTO": "COMUNIDADINDIGENA", "NOMBRE": "ELRINCÓNDELACANDELARIA", "MONTO\nASIGNADO\n(PESOS)": 1614073, "LATITUD": 19.789826, "LONGITUD": -99.843533 }, "geometry": { "type": "Point", "coordinates": [ -99.843533, 19.789826 ] } },
{ "type": "Feature", "properties": { "fid": 83, "NO": 83, "ENTIDAD": "MEXICO", "MUNICIPIO": "ATLACOMULCO", "PUEBLO\nINDIGENAO\nAFROMEXICANO": "MAZAHUA", "LOCALIDAD\n": "LAALCANTARILLA", "CLAVE INEGI": 150140080, "TIPODE\nASENTAMIENTO": "COMUNIDADINDIGENA", "NOMBRE": "LAALCANTARILLA", "MONTO\nASIGNADO\n(PESOS)": 216403, "LATITUD": 19.819663, "LONGITUD": -99.94321 }, "geometry": { "type": "Point", "coordinates": [ -99.94321, 19.819663 ] } },
{ "type": "Feature", "properties": { "fid": 84, "NO": 84, "ENTIDAD": "MEXICO", "MUNICIPIO": "ATLACOMULCO", "PUEBLO\nINDIGENAO\nAFROMEXICANO": "MAZAHUA", "LOCALIDAD\n": "LAMESADECHOSTO", "CLAVE INEGI": 150140024, "TIPODE\nASENTAMIENTO": "COMUNIDADINDIGENA", "NOMBRE": "LAMESADECHOSTO", "MONTO\nASIGNADO\n(PESOS)": 749118, "LATITUD": 19.854107, "LONGITUD": -99.88962 }, "geometry": { "type": "Point", "coordinates": [ -99.88962, 19.854107 ] } },
{ "type": "Feature", "properties": { "fid": 85, "NO": 85, "ENTIDAD": "MEXICO", "MUNICIPIO": "ATLACOMULCO", "PUEBLO\nINDIGENAO\nAFROMEXICANO": "MAZAHUA", "LOCALIDAD\n": "MANTODELRIO", "CLAVE INEGI": 150140021, "TIPODE\nASENTAMIENTO": "COMUNIDADINDIGENA", "NOMBRE": "MANTODERÍO", "MONTO\nASIGNADO\n(PESOS)": 1359437, "LATITUD": 19.840515, "LONGITUD": -99.928424 }, "geometry": { "type": "Point", "coordinates": [ -99.928424, 19.840515 ] } },
{ "type": "Feature", "properties": { "fid": 86, "NO": 86, "ENTIDAD": "MEXICO", "MUNICIPIO": "ATLACOMULCO", "PUEBLO\nINDIGENAO\nAFROMEXICANO": "MAZAHUA", "LOCALIDAD\n": "MANTODELRIOPUEBLO", "CLAVE INEGI": 150140020, "TIPODE\nASENTAMIENTO": "COMUNIDADINDIGENA", "NOMBRE": "MANTODERÍOPUEBLO", "MONTO\nASIGNADO\n(PESOS)": 825913, "LATITUD": 19.840129, "LONGITUD": -99.933049 }, "geometry": { "type": "Point", "coordinates": [ -99.933049, 19.840129 ] } },
{ "type": "Feature", "properties": { "fid": 87, "NO": 87, "ENTIDAD": "MEXICO", "MUNICIPIO": "ATLACOMULCO", "PUEBLO\nINDIGENAO\nAFROMEXICANO": "MAZAHUA", "LOCALIDAD\n": "PUENROO", "CLAVE INEGI": 150140101, "TIPODE\nASENTAMIENTO": "LOCALIDADCONPOBLACION\nINDIGENA", "NOMBRE": "PUENROO", "MONTO\nASIGNADO\n(PESOS)": 160014, "LATITUD": 19.783172, "LONGITUD": -99.755439 }, "geometry": { "type": "Point", "coordinates": [ -99.755439, 19.783172 ] } },
{ "type": "Feature", "properties": { "fid": 88, "NO": 88, "ENTIDAD": "MEXICO", "MUNICIPIO": "ATLACOMULCO", "PUEBLO\nINDIGENAO\nAFROMEXICANO": "MAZAHUA", "LOCALIDAD\n": "SANANTONIOENCHISI", "CLAVE INEGI": 150140035, "TIPODE\nASENTAMIENTO": "COMUNIDADINDIGENA", "NOMBRE": "SANANTONIOENCHISI", "MONTO\nASIGNADO\n(PESOS)": 3070753, "LATITUD": 19.754881, "LONGITUD": -99.820708 }, "geometry": { "type": "Point", "coordinates": [ -99.820708, 19.754881 ] } },
{ "type": "Feature", "properties": { "fid": 89, "NO": 89, "ENTIDAD": "MEXICO", "MUNICIPIO": "ATLACOMULCO", "PUEBLO\nINDIGENAO\nAFROMEXICANO": "MAZAHUA", "LOCALIDAD\n": "SANFELIPEPUEBLONUEVO", "CLAVE INEGI": 150140031, "TIPODE\nASENTAMIENTO": "COMUNIDADINDIGENA", "NOMBRE": "SANFELIPEPUEBLONUEVO", "MONTO\nASIGNADO\n(PESOS)": 1694101, "LATITUD": 19.767817, "LONGITUD": -99.758239 }, "geometry": { "type": "Point", "coordinates": [ -99.758239, 19.767817 ] } },
{ "type": "Feature", "properties": { "fid": 90, "NO": 90, "ENTIDAD": "MEXICO", "MUNICIPIO": "ATLACOMULCO", "PUEBLO\nINDIGENAO\nAFROMEXICANO": "MAZAHUA", "LOCALIDAD\n": "SANFRANCISCOCHALCHIHUAPAN", "CLAVE INEGI": 150140038, "TIPODE\nASENTAMIENTO": "COMUNIDADINDIGENA", "NOMBRE": "SANFRANCISCOCHALCHIHUAPAN", "MONTO\nASIGNADO\n(PESOS)": 1911552, "LATITUD": 19.770565, "LONGITUD": -99.819799 }, "geometry": { "type": "Point", "coordinates": [ -99.819799, 19.770565 ] } },
{ "type": "Feature", "properties": { "fid": 91, "NO": 91, "ENTIDAD": "MEXICO", "MUNICIPIO": "ATLACOMULCO", "PUEBLO\nINDIGENAO\nAFROMEXICANO": "MAZAHUA", "LOCALIDAD\n": "SANJERONIMODELOSJARROS", "CLAVE INEGI": 150140042, "TIPODE\nASENTAMIENTO": "COMUNIDADINDIGENA", "NOMBRE": "SANJERÓNIMODELOSJARROS", "MONTO\nASIGNADO\n(PESOS)": 1083783, "LATITUD": 19.87858, "LONGITUD": -99.923083 }, "geometry": { "type": "Point", "coordinates": [ -99.923083, 19.87858 ] } },
{ "type": "Feature", "properties": { "fid": 92, "NO": 92, "ENTIDAD": "MEXICO", "MUNICIPIO": "ATLACOMULCO", "PUEBLO\nINDIGENAO\nAFROMEXICANO": "MAZAHUA", "LOCALIDAD\n": "SANJOSEDELTUNAL", "CLAVE INEGI": 150140045, "TIPODE\nASENTAMIENTO": "COMUNIDADINDIGENA", "NOMBRE": "SANJOSÉDELTUNAL", "MONTO\nASIGNADO\n(PESOS)": 1394196, "LATITUD": 19.789066, "LONGITUD": -99.838026 }, "geometry": { "type": "Point", "coordinates": [ -99.838026, 19.789066 ] } },
{ "type": "Feature", "properties": { "fid": 93, "NO": 93, "ENTIDAD": "MEXICO", "MUNICIPIO": "ATLACOMULCO", "PUEBLO\nINDIGENAO\nAFROMEXICANO": "MAZAHUA", "LOCALIDAD\n": "SANJOSETOXI", "CLAVE INEGI": 150140046, "TIPODE\nASENTAMIENTO": "COMUNIDADINDIGENA", "NOMBRE": "SANJOSÉTOXI", "MONTO\nASIGNADO\n(PESOS)": 1759579, "LATITUD": 19.869287, "LONGITUD": -99.930427 }, "geometry": { "type": "Point", "coordinates": [ -99.930427, 19.869287 ] } },
{ "type": "Feature", "properties": { "fid": 94, "NO": 94, "ENTIDAD": "MEXICO", "MUNICIPIO": "ATLACOMULCO", "PUEBLO\nINDIGENAO\nAFROMEXICANO": "MAZAHUA", "LOCALIDAD\n": "SANLORENZOTLACOTEPEC", "CLAVE INEGI": 150140048, "TIPODE\nASENTAMIENTO": "COMUNIDADINDIGENA", "NOMBRE": "SANLORENZOTLACOTEPEC", "MONTO\nASIGNADO\n(PESOS)": 728909, "LATITUD": 19.821196, "LONGITUD": -99.917512 }, "geometry": { "type": "Point", "coordinates": [ -99.917512, 19.821196 ] } },
{ "type": "Feature", "properties": { "fid": 95, "NO": 95, "ENTIDAD": "MEXICO", "MUNICIPIO": "ATLACOMULCO", "PUEBLO\nINDIGENAO\nAFROMEXICANO": "MAZAHUA", "LOCALIDAD\n": "SANLUISBORO", "CLAVE INEGI": 150140049, "TIPODE\nASENTAMIENTO": "COMUNIDADINDIGENA", "NOMBRE": "SANLUISBORO", "MONTO\nASIGNADO\n(PESOS)": 2003467, "LATITUD": 19.812316, "LONGITUD": -99.854989 }, "geometry": { "type": "Point", "coordinates": [ -99.854989, 19.812316 ] } },
{ "type": "Feature", "properties": { "fid": 96, "NO": 96, "ENTIDAD": "MEXICO", "MUNICIPIO": "ATLACOMULCO", "PUEBLO\nINDIGENAO\nAFROMEXICANO": "OTOMÍ", "LOCALIDAD\n": "SANMARTINDELOSMANANTIALES", "CLAVE INEGI": 150140086, "TIPODE\nASENTAMIENTO": "COMUNIDADINDIGENA", "NOMBRE": "SANMARTÍNDELOSMANANTIALES", "MONTO\nASIGNADO\n(PESOS)": 232571, "LATITUD": 19.85467, "LONGITUD": -99.874105 }, "geometry": { "type": "Point", "coordinates": [ -99.874105, 19.85467 ] } },
{ "type": "Feature", "properties": { "fid": 97, "NO": 97, "ENTIDAD": "MEXICO", "MUNICIPIO": "ATLACOMULCO", "PUEBLO\nINDIGENAO\nAFROMEXICANO": "MAZAHUA", "LOCALIDAD\n": "SANPABLOATOTONILCO", "CLAVE INEGI": 150140003, "TIPODE\nASENTAMIENTO": "COMUNIDADINDIGENA", "NOMBRE": "SANPABLOATOTONILCO", "MONTO\nASIGNADO\n(PESOS)": 1240606, "LATITUD": 19.794466, "LONGITUD": -99.819194 }, "geometry": { "type": "Point", "coordinates": [ -99.819194, 19.794466 ] } },
{ "type": "Feature", "properties": { "fid": 98, "NO": 98, "ENTIDAD": "MEXICO", "MUNICIPIO": "ATLACOMULCO", "PUEBLO\nINDIGENAO\nAFROMEXICANO": "MAZAHUA", "LOCALIDAD\n": "SANPEDRODELROSAL", "CLAVE INEGI": 150140051, "TIPODE\nASENTAMIENTO": "COMUNIDADINDIGENA", "NOMBRE": "SANPEDRODELROSAL", "MONTO\nASIGNADO\n(PESOS)": 3903941, "LATITUD": 19.779489, "LONGITUD": -99.812446 }, "geometry": { "type": "Point", "coordinates": [ -99.812446, 19.779489 ] } },
{ "type": "Feature", "properties": { "fid": 99, "NO": 99, "ENTIDAD": "MEXICO", "MUNICIPIO": "ATLACOMULCO", "PUEBLO\nINDIGENAO\nAFROMEXICANO": "MAZAHUA", "LOCALIDAD\n": "SANTIAGOACUTZILAPAN", "CLAVE INEGI": 150140054, "TIPODE\nASENTAMIENTO": "COMUNIDADINDIGENA", "NOMBRE": "SANTIAGOACUTZILAPAN", "MONTO\nASIGNADO\n(PESOS)": 458675, "LATITUD": 19.792602, "LONGITUD": -99.766795 }, "geometry": { "type": "Point", "coordinates": [ -99.766795, 19.792602 ] } },
{ "type": "Feature", "properties": { "fid": 100, "NO": 100, "ENTIDAD": "MEXICO", "MUNICIPIO": "CAPULHUAC", "PUEBLO\nINDIGENAO\nAFROMEXICANO": "OTOMÍ", "LOCALIDAD\n": "AGUABLANCA", "CLAVE INEGI": 150190006, "TIPODE\nASENTAMIENTO": "COMUNIDADINDIGENA", "NOMBRE": "AGUABLANCA", "MONTO\nASIGNADO\n(PESOS)": 1218780, "LATITUD": 19.220608, "LONGITUD": -99.473688 }, "geometry": { "type": "Point", "coordinates": [ -99.473688, 19.220608 ] } },
{ "type": "Feature", "properties": { "fid": 101, "NO": 101, "ENTIDAD": "MEXICO", "MUNICIPIO": "CAPULHUAC", "PUEBLO\nINDIGENAO\nAFROMEXICANO": "OTOMÍ", "LOCALIDAD\n": "SANMIGUELALMAYA", "CLAVE INEGI": 150190004, "TIPODE\nASENTAMIENTO": "COMUNIDADINDIGENA", "NOMBRE": "SANMIGUELALMAYA", "MONTO\nASIGNADO\n(PESOS)": 192152, "LATITUD": 19.209201, "LONGITUD": -99.441266 }, "geometry": { "type": "Point", "coordinates": [ -99.441266, 19.209201 ] } },
{ "type": "Feature", "properties": { "fid": 102, "NO": 102, "ENTIDAD": "MEXICO", "MUNICIPIO": "CHALCO", "PUEBLO\nINDIGENAO\nAFROMEXICANO": "NAHUA", "LOCALIDAD\n": "SANGREGORIOCUAUTZINGO", "CLAVE INEGI": 150250005, "TIPODE\nASENTAMIENTO": "COMUNIDADINDIGENA", "NOMBRE": "SANGREGORIOCUAUTZINGO", "MONTO\nASIGNADO\n(PESOS)": 398855, "LATITUD": 19.257091, "LONGITUD": -98.858304 }, "geometry": { "type": "Point", "coordinates": [ -98.858304, 19.257091 ] } },
{ "type": "Feature", "properties": { "fid": 103, "NO": 103, "ENTIDAD": "MEXICO", "MUNICIPIO": "CHAPADEMOTA", "PUEBLO\nINDIGENAO\nAFROMEXICANO": "OTOMÍ", "LOCALIDAD\n": "DONGU", "CLAVE INEGI": 150260008, "TIPODE\nASENTAMIENTO": "COMUNIDADINDIGENA", "NOMBRE": "DONGÚ", "MONTO\nASIGNADO\n(PESOS)": 727053, "LATITUD": 19.845735, "LONGITUD": -99.5925 }, "geometry": { "type": "Point", "coordinates": [ -99.5925, 19.845735 ] } },
{ "type": "Feature", "properties": { "fid": 104, "NO": 104, "ENTIDAD": "MEXICO", "MUNICIPIO": "CHAPADEMOTA", "PUEBLO\nINDIGENAO\nAFROMEXICANO": "OTOMÍ", "LOCALIDAD\n": "SANGABRIEL", "CLAVE INEGI": 150260022, "TIPODE\nASENTAMIENTO": "COMUNIDADINDIGENA", "NOMBRE": "SANGABRIEL", "MONTO\nASIGNADO\n(PESOS)": 717592, "LATITUD": 19.887754, "LONGITUD": -99.645286 }, "geometry": { "type": "Point", "coordinates": [ -99.645286, 19.887754 ] } },
{ "type": "Feature", "properties": { "fid": 105, "NO": 105, "ENTIDAD": "MEXICO", "MUNICIPIO": "CHAPADEMOTA", "PUEBLO\nINDIGENAO\nAFROMEXICANO": "OTOMÍ", "LOCALIDAD\n": "SANJUANTUXTEPEC", "CLAVE INEGI": 150260023, "TIPODE\nASENTAMIENTO": "COMUNIDADINDIGENA", "NOMBRE": "SANJUANTUXTEPEC", "MONTO\nASIGNADO\n(PESOS)": 2950306, "LATITUD": 19.858291, "LONGITUD": -99.63208 }, "geometry": { "type": "Point", "coordinates": [ -99.63208, 19.858291 ] } },
{ "type": "Feature", "properties": { "fid": 106, "NO": 106, "ENTIDAD": "MEXICO", "MUNICIPIO": "CHAPADEMOTA", "PUEBLO\nINDIGENAO\nAFROMEXICANO": "OTOMÍ", "LOCALIDAD\n": "SANTAELENA", "CLAVE INEGI": 150260024, "TIPODE\nASENTAMIENTO": "COMUNIDADINDIGENA", "NOMBRE": "SANTAELENA", "MONTO\nASIGNADO\n(PESOS)": 784447, "LATITUD": 19.868175, "LONGITUD": -99.60249 }, "geometry": { "type": "Point", "coordinates": [ -99.60249, 19.868175 ] } },
{ "type": "Feature", "properties": { "fid": 107, "NO": 107, "ENTIDAD": "MEXICO", "MUNICIPIO": "DONATOGUERRA", "PUEBLO\nINDIGENAO\nAFROMEXICANO": "MAZAHUA", "LOCALIDAD\n": "CABECERADEINDIGENASPRIMERCUARTEL", "CLAVE INEGI": 150320033, "TIPODE\nASENTAMIENTO": "COMUNIDADINDIGENA", "NOMBRE": "CABECERAINDÍGENAPRIMERCUARTEL", "MONTO\nASIGNADO\n(PESOS)": 1785447, "LATITUD": 19.303669, "LONGITUD": -100.142101 }, "geometry": { "type": "Point", "coordinates": [ -100.142101, 19.303669 ] } },
{ "type": "Feature", "properties": { "fid": 108, "NO": 108, "ENTIDAD": "MEXICO", "MUNICIPIO": "DONATOGUERRA", "PUEBLO\nINDIGENAO\nAFROMEXICANO": "MAZAHUA", "LOCALIDAD\n": "NUEVACOLONIATRESPUENTES", "CLAVE INEGI": 150320030, "TIPODE\nASENTAMIENTO": "COMUNIDADINDIGENA", "NOMBRE": "NUEVACOLONIATRESPUENTES", "MONTO\nASIGNADO\n(PESOS)": 392421, "LATITUD": 19.264424, "LONGITUD": -100.108774 }, "geometry": { "type": "Point", "coordinates": [ -100.108774, 19.264424 ] } },
{ "type": "Feature", "properties": { "fid": 109, "NO": 109, "ENTIDAD": "MEXICO", "MUNICIPIO": "DONATOGUERRA", "PUEBLO\nINDIGENAO\nAFROMEXICANO": "MAZAHUA", "LOCALIDAD\n": "RANCHERIADESANMARTINOBISPO", "CLAVE INEGI": 150320014, "TIPODE\nASENTAMIENTO": "COMUNIDADINDIGENA", "NOMBRE": "SANMARTÍNOBISPO", "MONTO\nASIGNADO\n(PESOS)": 1962733, "LATITUD": 19.325391, "LONGITUD": -100.090383 }, "geometry": { "type": "Point", "coordinates": [ -100.090383, 19.325391 ] } },
{ "type": "Feature", "properties": { "fid": 110, "NO": 110, "ENTIDAD": "MEXICO", "MUNICIPIO": "DONATOGUERRA", "PUEBLO\nINDIGENAO\nAFROMEXICANO": "MAZAHUA", "LOCALIDAD\n": "SANAGUSTINDELASPALMAS(SANAGUSTIN)", "CLAVE INEGI": 150320008, "TIPODE\nASENTAMIENTO": "COMUNIDADINDIGENA", "NOMBRE": "SANAGUSTÍNDELASPALMAS", "MONTO\nASIGNADO\n(PESOS)": 112124, "LATITUD": 19.319534, "LONGITUD": -100.148088 }, "geometry": { "type": "Point", "coordinates": [ -100.148088, 19.319534 ] } },
{ "type": "Feature", "properties": { "fid": 111, "NO": 111, "ENTIDAD": "MEXICO", "MUNICIPIO": "DONATOGUERRA", "PUEBLO\nINDIGENAO\nAFROMEXICANO": "MAZAHUA", "LOCALIDAD\n": "SANANTONIODELALAGUNA", "CLAVE INEGI": 150320009, "TIPODE\nASENTAMIENTO": "COMUNIDADINDIGENA", "NOMBRE": "SANANTONIODELALAGUNA", "MONTO\nASIGNADO\n(PESOS)": 1638324, "LATITUD": 19.298215, "LONGITUD": -100.076468 }, "geometry": { "type": "Point", "coordinates": [ -100.076468, 19.298215 ] } },
{ "type": "Feature", "properties": { "fid": 112, "NO": 112, "ENTIDAD": "MEXICO", "MUNICIPIO": "DONATOGUERRA", "PUEBLO\nINDIGENAO\nAFROMEXICANO": "MAZAHUA", "LOCALIDAD\n": "SANFRANCISCOMIHUALTEPEC", "CLAVE INEGI": 150320011, "TIPODE\nASENTAMIENTO": "COMUNIDADINDIGENA", "NOMBRE": "SANFRANCISCOMIHUALTEPEC", "MONTO\nASIGNADO\n(PESOS)": 1980264, "LATITUD": 19.243976, "LONGITUD": -100.094629 }, "geometry": { "type": "Point", "coordinates": [ -100.094629, 19.243976 ] } },
{ "type": "Feature", "properties": { "fid": 113, "NO": 113, "ENTIDAD": "MEXICO", "MUNICIPIO": "DONATOGUERRA", "PUEBLO\nINDIGENAO\nAFROMEXICANO": "MAZAHUA", "LOCALIDAD\n": "SANMIGUELXOOLTEPEC", "CLAVE INEGI": 150320016, "TIPODE\nASENTAMIENTO": "COMUNIDADINDIGENA", "NOMBRE": "SANMIGUELXOOLTEPEC", "MONTO\nASIGNADO\n(PESOS)": 1601139, "LATITUD": 19.25186, "LONGITUD": -100.087306 }, "geometry": { "type": "Point", "coordinates": [ -100.087306, 19.25186 ] } },
{ "type": "Feature", "properties": { "fid": 114, "NO": 114, "ENTIDAD": "MEXICO", "MUNICIPIO": "DONATOGUERRA", "PUEBLO\nINDIGENAO\nAFROMEXICANO": "MAZAHUA", "LOCALIDAD\n": "SANSIMONDELALAGUNA", "CLAVE INEGI": 150320017, "TIPODE\nASENTAMIENTO": "COMUNIDADINDIGENA", "NOMBRE": "SANSIMÓNDELALAGUNA", "MONTO\nASIGNADO\n(PESOS)": 7370888, "LATITUD": 19.291071, "LONGITUD": -100.087149 }, "geometry": { "type": "Point", "coordinates": [ -100.087149, 19.291071 ] } },
{ "type": "Feature", "properties": { "fid": 115, "NO": 115, "ENTIDAD": "MEXICO", "MUNICIPIO": "DONATOGUERRA", "PUEBLO\nINDIGENAO\nAFROMEXICANO": "MAZAHUA", "LOCALIDAD\n": "SANTIAGOHUITLAPALTEPEC", "CLAVE INEGI": 150320018, "TIPODE\nASENTAMIENTO": "COMUNIDADINDIGENA", "NOMBRE": "SANTIAGOHUITLAPALTEPEC", "MONTO\nASIGNADO\n(PESOS)": 2667959, "LATITUD": 19.281762, "LONGITUD": -100.208976 }, "geometry": { "type": "Point", "coordinates": [ -100.208976, 19.281762 ] } },
{ "type": "Feature", "properties": { "fid": 116, "NO": 116, "ENTIDAD": "MEXICO", "MUNICIPIO": "ELORO", "PUEBLO\nINDIGENAO\nAFROMEXICANO": "MAZAHUA", "LOCALIDAD\n": "BARRIODELASPEÑITAS", "CLAVE INEGI": 150640047, "TIPODE\nASENTAMIENTO": "COMUNIDADINDIGENA", "NOMBRE": "BARRIODEPEÑITAS", "MONTO\nASIGNADO\n(PESOS)": 296432, "LATITUD": 19.77454, "LONGITUD": -100.089909 }, "geometry": { "type": "Point", "coordinates": [ -100.089909, 19.77454 ] } },
{ "type": "Feature", "properties": { "fid": 117, "NO": 117, "ENTIDAD": "MEXICO", "MUNICIPIO": "ELORO", "PUEBLO\nINDIGENAO\nAFROMEXICANO": "MAZAHUA", "LOCALIDAD\n": "BARRIODELGIGANTE", "CLAVE INEGI": 150640035, "TIPODE\nASENTAMIENTO": "COMUNIDADINDIGENA", "NOMBRE": "ELGIGANTE", "MONTO\nASIGNADO\n(PESOS)": 434663, "LATITUD": 19.767514, "LONGITUD": -100.096478 }, "geometry": { "type": "Point", "coordinates": [ -100.096478, 19.767514 ] } },
{ "type": "Feature", "properties": { "fid": 118, "NO": 118, "ENTIDAD": "MEXICO", "MUNICIPIO": "ELORO", "PUEBLO\nINDIGENAO\nAFROMEXICANO": "MAZAHUA", "LOCALIDAD\n": "CITEJE", "CLAVE INEGI": 150640007, "TIPODE\nASENTAMIENTO": "COMUNIDADINDIGENA", "NOMBRE": "CITEJE", "MONTO\nASIGNADO\n(PESOS)": 452447, "LATITUD": 19.767777, "LONGITUD": -100.016389 }, "geometry": { "type": "Point", "coordinates": [ -100.016389, 19.767777 ] } },
{ "type": "Feature", "properties": { "fid": 119, "NO": 119, "ENTIDAD": "MEXICO", "MUNICIPIO": "ELORO", "PUEBLO\nINDIGENAO\nAFROMEXICANO": "MAZAHUA", "LOCALIDAD\n": "EJIDOSANNICOLASELORO(AGUA ESCONDIDA)", "CLAVE INEGI": 150640003, "TIPODE\nASENTAMIENTO": "COMUNIDADINDIGENA", "NOMBRE": "EJIDODESANNICOLÁSELOROAGUA\nESCONDIDA", "MONTO\nASIGNADO\n(PESOS)": 596337, "LATITUD": 19.828265, "LONGITUD": -100.10144 }, "geometry": { "type": "Point", "coordinates": [ -100.10144, 19.828265 ] } },
{ "type": "Feature", "properties": { "fid": 120, "NO": 120, "ENTIDAD": "MEXICO", "MUNICIPIO": "ELORO", "PUEBLO\nINDIGENAO\nAFROMEXICANO": "MAZAHUA", "LOCALIDAD\n": "ELMOGOTE", "CLAVE INEGI": 150640036, "TIPODE\nASENTAMIENTO": "COMUNIDADINDIGENA", "NOMBRE": "ELMOGOTE", "MONTO\nASIGNADO\n(PESOS)": 364335, "LATITUD": 19.846439, "LONGITUD": -100.090514 }, "geometry": { "type": "Point", "coordinates": [ -100.090514, 19.846439 ] } },
{ "type": "Feature", "properties": { "fid": 121, "NO": 121, "ENTIDAD": "MEXICO", "MUNICIPIO": "ELORO", "PUEBLO\nINDIGENAO\nAFROMEXICANO": "MAZAHUA", "LOCALIDAD\n": "LAMAGDALENAMORELOS", "CLAVE INEGI": 150640016, "TIPODE\nASENTAMIENTO": "COMUNIDADINDIGENA", "NOMBRE": "LAMAGDALENAMORELOS", "MONTO\nASIGNADO\n(PESOS)": 694958, "LATITUD": 19.777065, "LONGITUD": -100.035186 }, "geometry": { "type": "Point", "coordinates": [ -100.035186, 19.777065 ] } },
{ "type": "Feature", "properties": { "fid": 122, "NO": 122, "ENTIDAD": "MEXICO", "MUNICIPIO": "ELORO", "PUEBLO\nINDIGENAO\nAFROMEXICANO": "MAZAHUA", "LOCALIDAD\n": "LAPALMA", "CLAVE INEGI": 150640019, "TIPODE\nASENTAMIENTO": "COMUNIDADINDIGENA", "NOMBRE": "LAPALMA", "MONTO\nASIGNADO\n(PESOS)": 403137, "LATITUD": 19.791956, "LONGITUD": -99.987346 }, "geometry": { "type": "Point", "coordinates": [ -99.987346, 19.791956 ] } },
{ "type": "Feature", "properties": { "fid": 123, "NO": 123, "ENTIDAD": "MEXICO", "MUNICIPIO": "ELORO", "PUEBLO\nINDIGENAO\nAFROMEXICANO": "MAZAHUA", "LOCALIDAD\n": "LASOLEDAD", "CLAVE INEGI": 150640052, "TIPODE\nASENTAMIENTO": "COMUNIDADINDIGENA", "NOMBRE": "LASOLEDAD", "MONTO\nASIGNADO\n(PESOS)": 363527, "LATITUD": 19.820747, "LONGITUD": -100.046533 }, "geometry": { "type": "Point", "coordinates": [ -100.046533, 19.820747 ] } },
{ "type": "Feature", "properties": { "fid": 124, "NO": 124, "ENTIDAD": "MEXICO", "MUNICIPIO": "ELORO", "PUEBLO\nINDIGENAO\nAFROMEXICANO": "MAZAHUA", "LOCALIDAD\n": "LAGUNASECA", "CLAVE INEGI": 150640057, "TIPODE\nASENTAMIENTO": "COMUNIDADINDIGENA", "NOMBRE": "LAGUNASECA", "MONTO\nASIGNADO\n(PESOS)": 268139, "LATITUD": 19.770595, "LONGITUD": -100.073658 }, "geometry": { "type": "Point", "coordinates": [ -100.073658, 19.770595 ] } },
{ "type": "Feature", "properties": { "fid": 125, "NO": 125, "ENTIDAD": "MEXICO", "MUNICIPIO": "ELORO", "PUEBLO\nINDIGENAO\nAFROMEXICANO": "MAZAHUA", "LOCALIDAD\n": "LAZAROCARDENAS", "CLAVE INEGI": 150640059, "TIPODE\nASENTAMIENTO": "LOCALIDADCONPOBLACION\nINDIGENA", "NOMBRE": "LAZAROCARDENAS", "MONTO\nASIGNADO\n(PESOS)": 385352, "LATITUD": 19.748407, "LONGITUD": -100.122766 }, "geometry": { "type": "Point", "coordinates": [ -100.122766, 19.748407 ] } },
{ "type": "Feature", "properties": { "fid": 126, "NO": 126, "ENTIDAD": "MEXICO", "MUNICIPIO": "ELORO", "PUEBLO\nINDIGENAO\nAFROMEXICANO": "MAZAHUA", "LOCALIDAD\n": "LLANITOCUATRO", "CLAVE INEGI": 150640060, "TIPODE\nASENTAMIENTO": "LOCALIDADCONPOBLACION\nINDIGENA", "NOMBRE": "LLANITOCUATRO", "MONTO\nASIGNADO\n(PESOS)": 329608, "LATITUD": 19.730929, "LONGITUD": -100.120242 }, "geometry": { "type": "Point", "coordinates": [ -100.120242, 19.730929 ] } },
{ "type": "Feature", "properties": { "fid": 127, "NO": 127, "ENTIDAD": "MEXICO", "MUNICIPIO": "ELORO", "PUEBLO\nINDIGENAO\nAFROMEXICANO": "MAZAHUA", "LOCALIDAD\n": "PUEBLONUEVODELOSANGELES", "CLAVE INEGI": 150640021, "TIPODE\nASENTAMIENTO": "COMUNIDADINDIGENA", "NOMBRE": "PUEBLONUEVODELOSÁNGELES", "MONTO\nASIGNADO\n(PESOS)": 2141459, "LATITUD": 19.775787, "LONGITUD": -100.01366 }, "geometry": { "type": "Point", "coordinates": [ -100.01366, 19.775787 ] } },
{ "type": "Feature", "properties": { "fid": 128, "NO": 128, "ENTIDAD": "MEXICO", "MUNICIPIO": "ELORO", "PUEBLO\nINDIGENAO\nAFROMEXICANO": "MAZAHUA", "LOCALIDAD\n": "SANNICOLASTULTENANGO", "CLAVE INEGI": 150640024, "TIPODE\nASENTAMIENTO": "COMUNIDADINDIGENA", "NOMBRE": "SANNICOLÁSTULTENANGO", "MONTO\nASIGNADO\n(PESOS)": 1711077, "LATITUD": 19.811748, "LONGITUD": -100.078229 }, "geometry": { "type": "Point", "coordinates": [ -100.078229, 19.811748 ] } },
{ "type": "Feature", "properties": { "fid": 129, "NO": 129, "ENTIDAD": "MEXICO", "MUNICIPIO": "ELORO", "PUEBLO\nINDIGENAO\nAFROMEXICANO": "MAZAHUA", "LOCALIDAD\n": "SANTACRUZELTEJOCOTE(ELTEJOCOTE)", "CLAVE INEGI": 150640029, "TIPODE\nASENTAMIENTO": "COMUNIDADINDIGENA", "NOMBRE": "SANTACRUZELTEJOCOTE", "MONTO\nASIGNADO\n(PESOS)": 909175, "LATITUD": 19.752146, "LONGITUD": -100.119813 }, "geometry": { "type": "Point", "coordinates": [ -100.119813, 19.752146 ] } },
{ "type": "Feature", "properties": { "fid": 130, "NO": 130, "ENTIDAD": "MEXICO", "MUNICIPIO": "ELORO", "PUEBLO\nINDIGENAO\nAFROMEXICANO": "MAZAHUA", "LOCALIDAD\n": "SANTAROSADEGUADALUPE", "CLAVE INEGI": 150640049, "TIPODE\nASENTAMIENTO": "COMUNIDADINDIGENA", "NOMBRE": "SANTAROSADEGUADALUPE", "MONTO\nASIGNADO\n(PESOS)": 465381, "LATITUD": 19.8001, "LONGITUD": -100.095841 }, "geometry": { "type": "Point", "coordinates": [ -100.095841, 19.8001 ] } },
{ "type": "Feature", "properties": { "fid": 131, "NO": 131, "ENTIDAD": "MEXICO", "MUNICIPIO": "ELORO", "PUEBLO\nINDIGENAO\nAFROMEXICANO": "MAZAHUA", "LOCALIDAD\n": "SANTAROSADELIMA", "CLAVE INEGI": 150640025, "TIPODE\nASENTAMIENTO": "COMUNIDADINDIGENA", "NOMBRE": "SANTAROSADELIMA", "MONTO\nASIGNADO\n(PESOS)": 1232523, "LATITUD": 19.782643, "LONGITUD": -100.103209 }, "geometry": { "type": "Point", "coordinates": [ -100.103209, 19.782643 ] } },
{ "type": "Feature", "properties": { "fid": 132, "NO": 132, "ENTIDAD": "MEXICO", "MUNICIPIO": "ELORO", "PUEBLO\nINDIGENAO\nAFROMEXICANO": "MAZAHUA", "LOCALIDAD\n": "SANTIAGOOXTEMPAN", "CLAVE INEGI": 150640027, "TIPODE\nASENTAMIENTO": "COMUNIDADINDIGENA", "NOMBRE": "SANTIAGOOXTEMPAN", "MONTO\nASIGNADO\n(PESOS)": 4892097, "LATITUD": 19.782965, "LONGITUD": -100.121697 }, "geometry": { "type": "Point", "coordinates": [ -100.121697, 19.782965 ] } },
{ "type": "Feature", "properties": { "fid": 133, "NO": 133, "ENTIDAD": "MEXICO", "MUNICIPIO": "HUIXQUILUCAN", "PUEBLO\nINDIGENAO\nAFROMEXICANO": "OTOMÍ", "LOCALIDAD\n": "ELGUARDA(PUERTOELGUARDA)", "CLAVE INEGI": 150370034, "TIPODE\nASENTAMIENTO": "COMUNIDADINDIGENA", "NOMBRE": "ELGUARDA-HIELOAYOTUXCO", "MONTO\nASIGNADO\n(PESOS)": 1284258, "LATITUD": 19.414825, "LONGITUD": -99.381137 }, "geometry": { "type": "Point", "coordinates": [ -99.381137, 19.414825 ] } },
{ "type": "Feature", "properties": { "fid": 134, "NO": 134, "ENTIDAD": "MEXICO", "MUNICIPIO": "HUIXQUILUCAN", "PUEBLO\nINDIGENAO\nAFROMEXICANO": "OTOMÍ", "LOCALIDAD\n": "ELLAUREL", "CLAVE INEGI": 150370010, "TIPODE\nASENTAMIENTO": "COMUNIDADINDIGENA", "NOMBRE": "RANCHERÍAELLAUREL", "MONTO\nASIGNADO\n(PESOS)": 845314, "LATITUD": 19.355821, "LONGITUD": -99.365712 }, "geometry": { "type": "Point", "coordinates": [ -99.365712, 19.355821 ] } },
{ "type": "Feature", "properties": { "fid": 135, "NO": 135, "ENTIDAD": "MEXICO", "MUNICIPIO": "HUIXQUILUCAN", "PUEBLO\nINDIGENAO\nAFROMEXICANO": "OTOMÍ", "LOCALIDAD\n": "MAGDALENACHICHICASPA", "CLAVE INEGI": 150370013, "TIPODE\nASENTAMIENTO": "COMUNIDADINDIGENA", "NOMBRE": "LAMAGDALENACHICHICASPA", "MONTO\nASIGNADO\n(PESOS)": 3062042, "LATITUD": 19.41764, "LONGITUD": -99.325996 }, "geometry": { "type": "Point", "coordinates": [ -99.325996, 19.41764 ] } },
{ "type": "Feature", "properties": { "fid": 136, "NO": 136, "ENTIDAD": "MEXICO", "MUNICIPIO": "HUIXQUILUCAN", "PUEBLO\nINDIGENAO\nAFROMEXICANO": "OTOMÍ", "LOCALIDAD\n": "SANFRANCISCOAYOTUZCO", "CLAVE INEGI": 150370021, "TIPODE\nASENTAMIENTO": "COMUNIDADINDIGENA", "NOMBRE": "SANFRANCISCOAYOTUXCO", "MONTO\nASIGNADO\n(PESOS)": 8938641, "LATITUD": 19.363227, "LONGITUD": -99.357406 }, "geometry": { "type": "Point", "coordinates": [ -99.357406, 19.363227 ] } },
{ "type": "Feature", "properties": { "fid": 137, "NO": 137, "ENTIDAD": "MEXICO", "MUNICIPIO": "HUIXQUILUCAN", "PUEBLO\nINDIGENAO\nAFROMEXICANO": "OTOMÍ", "LOCALIDAD\n": "SANJUANYAUTEPEC", "CLAVE INEGI": 150370023, "TIPODE\nASENTAMIENTO": "COMUNIDADINDIGENA", "NOMBRE": "SANJUANYAUTEPEC", "MONTO\nASIGNADO\n(PESOS)": 872799, "LATITUD": 19.347638, "LONGITUD": -99.342563 }, "geometry": { "type": "Point", "coordinates": [ -99.342563, 19.347638 ] } },
{ "type": "Feature", "properties": { "fid": 138, "NO": 138, "ENTIDAD": "MEXICO", "MUNICIPIO": "HUIXQUILUCAN", "PUEBLO\nINDIGENAO\nAFROMEXICANO": "OTOMÍ", "LOCALIDAD\n": "SANTIAGOYANCUITLALPAN", "CLAVE INEGI": 150370025, "TIPODE\nASENTAMIENTO": "COMUNIDADINDIGENA", "NOMBRE": "COMUNIDADINDÍGENASANTIAGO\nYANCUITLALPAN", "MONTO\nASIGNADO\n(PESOS)": 199428, "LATITUD": 19.385524, "LONGITUD": -99.304735 }, "geometry": { "type": "Point", "coordinates": [ -99.304735, 19.385524 ] } },
{ "type": "Feature", "properties": { "fid": 139, "NO": 139, "ENTIDAD": "MEXICO", "MUNICIPIO": "IXTAPALUCA", "PUEBLO\nINDIGENAO\nAFROMEXICANO": "NAHUA", "LOCALIDAD\n": "COATEPEC", "CLAVE INEGI": 150390004, "TIPODE\nASENTAMIENTO": "COMUNIDADINDIGENA", "NOMBRE": "COATEPEC", "MONTO\nASIGNADO\n(PESOS)": 323916, "LATITUD": 19.385126, "LONGITUD": -98.848046 }, "geometry": { "type": "Point", "coordinates": [ -98.848046, 19.385126 ] } },
{ "type": "Feature", "properties": { "fid": 140, "NO": 140, "ENTIDAD": "MEXICO", "MUNICIPIO": "IXTAPANDELORO", "PUEBLO\nINDIGENAO\nAFROMEXICANO": "MAZAHUA", "LOCALIDAD\n": "ELTEPERREAL", "CLAVE INEGI": 150410010, "TIPODE\nASENTAMIENTO": "COMUNIDADINDIGENA", "NOMBRE": "ELTEPERREAL", "MONTO\nASIGNADO\n(PESOS)": 280265, "LATITUD": 19.291268, "LONGITUD": -100.283346 }, "geometry": { "type": "Point", "coordinates": [ -100.283346, 19.291268 ] } },
{ "type": "Feature", "properties": { "fid": 141, "NO": 141, "ENTIDAD": "MEXICO", "MUNICIPIO": "IXTAPANDELORO", "PUEBLO\nINDIGENAO\nAFROMEXICANO": "MAZAHUA", "LOCALIDAD\n": "MIAHUATLANDEHIDALGO(SANTACRUZ MIAHUATLAN)", "CLAVE INEGI": 150410004, "TIPODE\nASENTAMIENTO": "COMUNIDADINDIGENA", "NOMBRE": "MIAHUATLANDEHIDALGO", "MONTO\nASIGNADO\n(PESOS)": 1731855, "LATITUD": 19.301653, "LONGITUD": -100.293216 }, "geometry": { "type": "Point", "coordinates": [ -100.293216, 19.301653 ] } },
{ "type": "Feature", "properties": { "fid": 142, "NO": 142, "ENTIDAD": "MEXICO", "MUNICIPIO": "IXTAPANDELORO", "PUEBLO\nINDIGENAO\nAFROMEXICANO": "MAZAHUA", "LOCALIDAD\n": "SANMARTINOCOXOCHITEPEC(SANMARTIN)", "CLAVE INEGI": 150410006, "TIPODE\nASENTAMIENTO": "COMUNIDADINDIGENA", "NOMBRE": "SANMARTÍNOCOXOCHITEPEC", "MONTO\nASIGNADO\n(PESOS)": 729478, "LATITUD": 19.270057, "LONGITUD": -100.261204 }, "geometry": { "type": "Point", "coordinates": [ -100.261204, 19.270057 ] } },
{ "type": "Feature", "properties": { "fid": 143, "NO": 143, "ENTIDAD": "MEXICO", "MUNICIPIO": "IXTLAHUACA", "PUEBLO\nINDIGENAO\nAFROMEXICANO": "MAZAHUA", "LOCALIDAD\n": "ATOTONILCO", "CLAVE INEGI": 150420072, "TIPODE\nASENTAMIENTO": "COMUNIDADINDIGENA", "NOMBRE": "ATOTONILCO", "MONTO\nASIGNADO\n(PESOS)": 931810, "LATITUD": 19.702217, "LONGITUD": -99.847893 }, "geometry": { "type": "Point", "coordinates": [ -99.847893, 19.702217 ] } },
{ "type": "Feature", "properties": { "fid": 144, "NO": 144, "ENTIDAD": "MEXICO", "MUNICIPIO": "IXTLAHUACA", "PUEBLO\nINDIGENAO\nAFROMEXICANO": "MAZAHUA", "LOCALIDAD\n": "COLONIACUAUHTEMOC", "CLAVE INEGI": 150420069, "TIPODE\nASENTAMIENTO": "COMUNIDADINDIGENA", "NOMBRE": "COLONIACUAUHTÉMOC", "MONTO\nASIGNADO\n(PESOS)": 374035, "LATITUD": 19.686469, "LONGITUD": -99.886657 }, "geometry": { "type": "Point", "coordinates": [ -99.886657, 19.686469 ] } },
{ "type": "Feature", "properties": { "fid": 145, "NO": 145, "ENTIDAD": "MEXICO", "MUNICIPIO": "IXTLAHUACA", "PUEBLO\nINDIGENAO\nAFROMEXICANO": "MAZAHUA", "LOCALIDAD\n": "DOLORESENYEGE", "CLAVE INEGI": 150420004, "TIPODE\nASENTAMIENTO": "COMUNIDADINDIGENA", "NOMBRE": "DOLORESENYEGE", "MONTO\nASIGNADO\n(PESOS)": 563194, "LATITUD": 19.569401, "LONGITUD": -99.848144 }, "geometry": { "type": "Point", "coordinates": [ -99.848144, 19.569401 ] } },
{ "type": "Feature", "properties": { "fid": 146, "NO": 146, "ENTIDAD": "MEXICO", "MUNICIPIO": "IXTLAHUACA", "PUEBLO\nINDIGENAO\nAFROMEXICANO": "MAZAHUA", "LOCALIDAD\n": "EJIDO20DENOVIEMBRE", "CLAVE INEGI": 150420076, "TIPODE\nASENTAMIENTO": "COMUNIDADINDIGENA", "NOMBRE": "EJIDO20DENOVIEMBRE", "MONTO\nASIGNADO\n(PESOS)": 466189, "LATITUD": 19.668787, "LONGITUD": -99.889008 }, "geometry": { "type": "Point", "coordinates": [ -99.889008, 19.668787 ] } },
{ "type": "Feature", "properties": { "fid": 147, "NO": 147, "ENTIDAD": "MEXICO", "MUNICIPIO": "IXTLAHUACA", "PUEBLO\nINDIGENAO\nAFROMEXICANO": "MAZAHUA", "LOCALIDAD\n": "GUADALUPECACHI", "CLAVE INEGI": 150420007, "TIPODE\nASENTAMIENTO": "COMUNIDADINDIGENA", "NOMBRE": "GUADALUPECACHI", "MONTO\nASIGNADO\n(PESOS)": 2481452, "LATITUD": 19.597058, "LONGITUD": -99.825547 }, "geometry": { "type": "Point", "coordinates": [ -99.825547, 19.597058 ] } },
{ "type": "Feature", "properties": { "fid": 148, "NO": 148, "ENTIDAD": "MEXICO", "MUNICIPIO": "IXTLAHUACA", "PUEBLO\nINDIGENAO\nAFROMEXICANO": "MAZAHUA", "LOCALIDAD\n": "GUADALUPEDELRIO", "CLAVE INEGI": 150420040, "TIPODE\nASENTAMIENTO": "LOCALIDADCONPOBLACION\nINDIGENA", "NOMBRE": "GUADALUPEDELRIO", "MONTO\nASIGNADO\n(PESOS)": 1187627, "LATITUD": 19.715222, "LONGITUD": -99.887486 }, "geometry": { "type": "Point", "coordinates": [ -99.887486, 19.715222 ] } },
{ "type": "Feature", "properties": { "fid": 149, "NO": 149, "ENTIDAD": "MEXICO", "MUNICIPIO": "IXTLAHUACA", "PUEBLO\nINDIGENAO\nAFROMEXICANO": "MAZAHUA", "LOCALIDAD\n": "HUEREJE", "CLAVE INEGI": 150420055, "TIPODE\nASENTAMIENTO": "COMUNIDADINDIGENA", "NOMBRE": "HUEREJE", "MONTO\nASIGNADO\n(PESOS)": 547835, "LATITUD": 19.613885, "LONGITUD": -99.754783 }, "geometry": { "type": "Point", "coordinates": [ -99.754783, 19.613885 ] } },
{ "type": "Feature", "properties": { "fid": 150, "NO": 150, "ENTIDAD": "MEXICO", "MUNICIPIO": "IXTLAHUACA", "PUEBLO\nINDIGENAO\nAFROMEXICANO": "MAZAHUA", "LOCALIDAD\n": "JALPADEDOLORES", "CLAVE INEGI": 150420009, "TIPODE\nASENTAMIENTO": "COMUNIDADINDIGENA", "NOMBRE": "JALPADEDOLORES", "MONTO\nASIGNADO\n(PESOS)": 565619, "LATITUD": 19.6523, "LONGITUD": -99.868976 }, "geometry": { "type": "Point", "coordinates": [ -99.868976, 19.6523 ] } },
{ "type": "Feature", "properties": { "fid": 151, "NO": 151, "ENTIDAD": "MEXICO", "MUNICIPIO": "IXTLAHUACA", "PUEBLO\nINDIGENAO\nAFROMEXICANO": "MAZAHUA", "LOCALIDAD\n": "JALPADELOSBAÑOS", "CLAVE INEGI": 150420010, "TIPODE\nASENTAMIENTO": "COMUNIDADINDIGENA", "NOMBRE": "JALPADELOSBAÑOS", "MONTO\nASIGNADO\n(PESOS)": 1765238, "LATITUD": 19.677545, "LONGITUD": -99.873792 }, "geometry": { "type": "Point", "coordinates": [ -99.873792, 19.677545 ] } },
{ "type": "Feature", "properties": { "fid": 152, "NO": 152, "ENTIDAD": "MEXICO", "MUNICIPIO": "IXTLAHUACA", "PUEBLO\nINDIGENAO\nAFROMEXICANO": "MAZAHUA", "LOCALIDAD\n": "LACONCEPCIONDELOSBAÑOS", "CLAVE INEGI": 150420002, "TIPODE\nASENTAMIENTO": "COMUNIDADINDIGENA", "NOMBRE": "LACONCEPCIÓNDELOSBAÑOS", "MONTO\nASIGNADO\n(PESOS)": 822680, "LATITUD": 19.683535, "LONGITUD": -99.86151 }, "geometry": { "type": "Point", "coordinates": [ -99.86151, 19.683535 ] } },
{ "type": "Feature", "properties": { "fid": 153, "NO": 153, "ENTIDAD": "MEXICO", "MUNICIPIO": "IXTLAHUACA", "PUEBLO\nINDIGENAO\nAFROMEXICANO": "MAZAHUA", "LOCALIDAD\n": "LACONCEPCIONENYEGE", "CLAVE INEGI": 150420003, "TIPODE\nASENTAMIENTO": "COMUNIDADINDIGENA", "NOMBRE": "LACONCEPCIÓNENYEGE", "MONTO\nASIGNADO\n(PESOS)": 1184829, "LATITUD": 19.564975, "LONGITUD": -99.841614 }, "geometry": { "type": "Point", "coordinates": [ -99.841614, 19.564975 ] } },
{ "type": "Feature", "properties": { "fid": 154, "NO": 154, "ENTIDAD": "MEXICO", "MUNICIPIO": "IXTLAHUACA", "PUEBLO\nINDIGENAO\nAFROMEXICANO": "MAZAHUA", "LOCALIDAD\n": "LAGUADALUPANA(ELSAUCO)", "CLAVE INEGI": 150420006, "TIPODE\nASENTAMIENTO": "COMUNIDADINDIGENA", "NOMBRE": "LAGUADALUPANA", "MONTO\nASIGNADO\n(PESOS)": 1412495, "LATITUD": 19.560843, "LONGITUD": -99.895302 }, "geometry": { "type": "Point", "coordinates": [ -99.895302, 19.560843 ] } },
{ "type": "Feature", "properties": { "fid": 155, "NO": 155, "ENTIDAD": "MEXICO", "MUNICIPIO": "IXTLAHUACA", "PUEBLO\nINDIGENAO\nAFROMEXICANO": "MAZAHUA", "LOCALIDAD\n": "SANANDRESDELPEDREGAL", "CLAVE INEGI": 150420013, "TIPODE\nASENTAMIENTO": "COMUNIDADINDIGENA", "NOMBRE": "SANANDRÉSDELPEDREGAL", "MONTO\nASIGNADO\n(PESOS)": 2076459, "LATITUD": 19.58111, "LONGITUD": -99.868432 }, "geometry": { "type": "Point", "coordinates": [ -99.868432, 19.58111 ] } },
{ "type": "Feature", "properties": { "fid": 156, "NO": 156, "ENTIDAD": "MEXICO", "MUNICIPIO": "IXTLAHUACA", "PUEBLO\nINDIGENAO\nAFROMEXICANO": "MAZAHUA", "LOCALIDAD\n": "SANANTONIOBONIXI", "CLAVE INEGI": 150420014, "TIPODE\nASENTAMIENTO": "COMUNIDADINDIGENA", "NOMBRE": "SANANTONIOBONIXI", "MONTO\nASIGNADO\n(PESOS)": 211553, "LATITUD": 19.490146, "LONGITUD": -99.726014 }, "geometry": { "type": "Point", "coordinates": [ -99.726014, 19.490146 ] } },
{ "type": "Feature", "properties": { "fid": 157, "NO": 157, "ENTIDAD": "MEXICO", "MUNICIPIO": "IXTLAHUACA", "PUEBLO\nINDIGENAO\nAFROMEXICANO": "MAZAHUA", "LOCALIDAD\n": "SANANTONIODELOSREMEDIOS", "CLAVE INEGI": 150420015, "TIPODE\nASENTAMIENTO": "COMUNIDADINDIGENA", "NOMBRE": "SANANTONIODELOSREMEDIOS", "MONTO\nASIGNADO\n(PESOS)": 924534, "LATITUD": 19.642397, "LONGITUD": -99.863165 }, "geometry": { "type": "Point", "coordinates": [ -99.863165, 19.642397 ] } },
{ "type": "Feature", "properties": { "fid": 158, "NO": 158, "ENTIDAD": "MEXICO", "MUNICIPIO": "IXTLAHUACA", "PUEBLO\nINDIGENAO\nAFROMEXICANO": "MAZAHUA", "LOCALIDAD\n": "SANCRISTOBALDELOSBAÑOS", "CLAVE INEGI": 150420017, "TIPODE\nASENTAMIENTO": "COMUNIDADINDIGENA", "NOMBRE": "SANCRISTÓBALDELOSBAÑOS", "MONTO\nASIGNADO\n(PESOS)": 3535565, "LATITUD": 19.703586, "LONGITUD": -99.880645 }, "geometry": { "type": "Point", "coordinates": [ -99.880645, 19.703586 ] } },
{ "type": "Feature", "properties": { "fid": 159, "NO": 159, "ENTIDAD": "MEXICO", "MUNICIPIO": "IXTLAHUACA", "PUEBLO\nINDIGENAO\nAFROMEXICANO": "MAZAHUA", "LOCALIDAD\n": "SANFRANCISCODEGUZMAN", "CLAVE INEGI": 150420018, "TIPODE\nASENTAMIENTO": "COMUNIDADINDIGENA", "NOMBRE": "SANFRANCISCODEGUZMÁN", "MONTO\nASIGNADO\n(PESOS)": 1559104, "LATITUD": 19.619471, "LONGITUD": -99.778267 }, "geometry": { "type": "Point", "coordinates": [ -99.778267, 19.619471 ] } },
{ "type": "Feature", "properties": { "fid": 160, "NO": 160, "ENTIDAD": "MEXICO", "MUNICIPIO": "IXTLAHUACA", "PUEBLO\nINDIGENAO\nAFROMEXICANO": "MAZAHUA", "LOCALIDAD\n": "SANFRANCISCODELRIO", "CLAVE INEGI": 150420041, "TIPODE\nASENTAMIENTO": "COMUNIDADINDIGENA", "NOMBRE": "SANFRANCISCODELRÍO", "MONTO\nASIGNADO\n(PESOS)": 939085, "LATITUD": 19.691909, "LONGITUD": -99.893135 }, "geometry": { "type": "Point", "coordinates": [ -99.893135, 19.691909 ] } },
{ "type": "Feature", "properties": { "fid": 161, "NO": 161, "ENTIDAD": "MEXICO", "MUNICIPIO": "IXTLAHUACA", "PUEBLO\nINDIGENAO\nAFROMEXICANO": "MAZAHUA", "LOCALIDAD\n": "SANFRANCISCOIXTLAHUACA", "CLAVE INEGI": 150420059, "TIPODE\nASENTAMIENTO": "COMUNIDADINDIGENA", "NOMBRE": "SANFRANCISCOIXTLAHUACA", "MONTO\nASIGNADO\n(PESOS)": 1168662, "LATITUD": 19.511743, "LONGITUD": -99.789282 }, "geometry": { "type": "Point", "coordinates": [ -99.789282, 19.511743 ] } },
{ "type": "Feature", "properties": { "fid": 162, "NO": 162, "ENTIDAD": "MEXICO", "MUNICIPIO": "IXTLAHUACA", "PUEBLO\nINDIGENAO\nAFROMEXICANO": "MAZAHUA", "LOCALIDAD\n": "SANIGNACIODELPEDREGAL", "CLAVE INEGI": 150420019, "TIPODE\nASENTAMIENTO": "COMUNIDADINDIGENA", "NOMBRE": "SANIGNACIODELPEDREGAL", "MONTO\nASIGNADO\n(PESOS)": 828338, "LATITUD": 19.606889, "LONGITUD": -99.853122 }, "geometry": { "type": "Point", "coordinates": [ -99.853122, 19.606889 ] } },
{ "type": "Feature", "properties": { "fid": 163, "NO": 163, "ENTIDAD": "MEXICO", "MUNICIPIO": "IXTLAHUACA", "PUEBLO\nINDIGENAO\nAFROMEXICANO": "MAZAHUA", "LOCALIDAD\n": "SANILDEFONSO", "CLAVE INEGI": 150420020, "TIPODE\nASENTAMIENTO": "COMUNIDADINDIGENA", "NOMBRE": "SANIDELFONSO", "MONTO\nASIGNADO\n(PESOS)": 478315, "LATITUD": 19.561177, "LONGITUD": -99.786068 }, "geometry": { "type": "Point", "coordinates": [ -99.786068, 19.561177 ] } },
{ "type": "Feature", "properties": { "fid": 164, "NO": 164, "ENTIDAD": "MEXICO", "MUNICIPIO": "IXTLAHUACA", "PUEBLO\nINDIGENAO\nAFROMEXICANO": "MAZAHUA", "LOCALIDAD\n": "SANISIDROBOXIPE", "CLAVE INEGI": 150420021, "TIPODE\nASENTAMIENTO": "COMUNIDADINDIGENA", "NOMBRE": "SANISIDROBOXIPE", "MONTO\nASIGNADO\n(PESOS)": 1753920, "LATITUD": 19.60122, "LONGITUD": -99.890793 }, "geometry": { "type": "Point", "coordinates": [ -99.890793, 19.60122 ] } },
{ "type": "Feature", "properties": { "fid": 165, "NO": 165, "ENTIDAD": "MEXICO", "MUNICIPIO": "IXTLAHUACA", "PUEBLO\nINDIGENAO\nAFROMEXICANO": "MAZAHUA", "LOCALIDAD\n": "SANJERONIMOLACAÑADA", "CLAVE INEGI": 150420075, "TIPODE\nASENTAMIENTO": "COMUNIDADINDIGENA", "NOMBRE": "SANJERÓNIMOLACAÑADA", "MONTO\nASIGNADO\n(PESOS)": 412029, "LATITUD": 19.523752, "LONGITUD": -99.739 }, "geometry": { "type": "Point", "coordinates": [ -99.739, 19.523752 ] } },
{ "type": "Feature", "properties": { "fid": 166, "NO": 166, "ENTIDAD": "MEXICO", "MUNICIPIO": "IXTLAHUACA", "PUEBLO\nINDIGENAO\nAFROMEXICANO": "MAZAHUA", "LOCALIDAD\n": "SANJOAQUINELJUNCO", "CLAVE INEGI": 150420008, "TIPODE\nASENTAMIENTO": "COMUNIDADINDIGENA", "NOMBRE": "SANJOAQUÍNELJUNCO", "MONTO\nASIGNADO\n(PESOS)": 218829, "LATITUD": 19.564344, "LONGITUD": -99.773309 }, "geometry": { "type": "Point", "coordinates": [ -99.773309, 19.564344 ] } },
{ "type": "Feature", "properties": { "fid": 167, "NO": 167, "ENTIDAD": "MEXICO", "MUNICIPIO": "IXTLAHUACA", "PUEBLO\nINDIGENAO\nAFROMEXICANO": "MAZAHUA", "LOCALIDAD\n": "SANJOSEDELRIO", "CLAVE INEGI": 150420042, "TIPODE\nASENTAMIENTO": "COMUNIDADINDIGENA", "NOMBRE": "SANJOSÉDELRÍO", "MONTO\nASIGNADO\n(PESOS)": 502566, "LATITUD": 19.630348, "LONGITUD": -99.818757 }, "geometry": { "type": "Point", "coordinates": [ -99.818757, 19.630348 ] } },
{ "type": "Feature", "properties": { "fid": 168, "NO": 168, "ENTIDAD": "MEXICO", "MUNICIPIO": "IXTLAHUACA", "PUEBLO\nINDIGENAO\nAFROMEXICANO": "MAZAHUA", "LOCALIDAD\n": "SANJUANDELASMANZANAS", "CLAVE INEGI": 150420024, "TIPODE\nASENTAMIENTO": "COMUNIDADINDIGENA", "NOMBRE": "SANJUANDELASMANZANAS", "MONTO\nASIGNADO\n(PESOS)": 1636707, "LATITUD": 19.554549, "LONGITUD": -99.838505 }, "geometry": { "type": "Point", "coordinates": [ -99.838505, 19.554549 ] } },
{ "type": "Feature", "properties": { "fid": 169, "NO": 169, "ENTIDAD": "MEXICO", "MUNICIPIO": "IXTLAHUACA", "PUEBLO\nINDIGENAO\nAFROMEXICANO": "MAZAHUA", "LOCALIDAD\n": "SANLORENZOTOXICO", "CLAVE INEGI": 150420025, "TIPODE\nASENTAMIENTO": "COMUNIDADINDIGENA", "NOMBRE": "SANLORENZOTÓXICO", "MONTO\nASIGNADO\n(PESOS)": 321491, "LATITUD": 19.509048, "LONGITUD": -99.762657 }, "geometry": { "type": "Point", "coordinates": [ -99.762657, 19.509048 ] } },
{ "type": "Feature", "properties": { "fid": 170, "NO": 170, "ENTIDAD": "MEXICO", "MUNICIPIO": "IXTLAHUACA", "PUEBLO\nINDIGENAO\nAFROMEXICANO": "MAZAHUA", "LOCALIDAD\n": "SANMATEOIXTLAHUACA", "CLAVE INEGI": 150420026, "TIPODE\nASENTAMIENTO": "COMUNIDADINDIGENA", "NOMBRE": "SANMATEOIXTLAHUACA", "MONTO\nASIGNADO\n(PESOS)": 1899427, "LATITUD": 19.606813, "LONGITUD": -99.801465 }, "geometry": { "type": "Point", "coordinates": [ -99.801465, 19.606813 ] } },
{ "type": "Feature", "properties": { "fid": 171, "NO": 171, "ENTIDAD": "MEXICO", "MUNICIPIO": "IXTLAHUACA", "PUEBLO\nINDIGENAO\nAFROMEXICANO": "MAZAHUA", "LOCALIDAD\n": "SANMIGUELENYEGE", "CLAVE INEGI": 150420027, "TIPODE\nASENTAMIENTO": "COMUNIDADINDIGENA", "NOMBRE": "SANMIGUELENYEGE", "MONTO\nASIGNADO\n(PESOS)": 2011790, "LATITUD": 19.574389, "LONGITUD": -99.858284 }, "geometry": { "type": "Point", "coordinates": [ -99.858284, 19.574389 ] } },
{ "type": "Feature", "properties": { "fid": 172, "NO": 172, "ENTIDAD": "MEXICO", "MUNICIPIO": "IXTLAHUACA", "PUEBLO\nINDIGENAO\nAFROMEXICANO": "MAZAHUA", "LOCALIDAD\n": "SANPABLODELOSREMEDIOS", "CLAVE INEGI": 150420028, "TIPODE\nASENTAMIENTO": "COMUNIDADINDIGENA", "NOMBRE": "SANPABLODELOSREMEDIOS", "MONTO\nASIGNADO\n(PESOS)": 1438657, "LATITUD": 19.641861, "LONGITUD": -99.83759 }, "geometry": { "type": "Point", "coordinates": [ -99.83759, 19.641861 ] } },
{ "type": "Feature", "properties": { "fid": 173, "NO": 173, "ENTIDAD": "MEXICO", "MUNICIPIO": "IXTLAHUACA", "PUEBLO\nINDIGENAO\nAFROMEXICANO": "MAZAHUA", "LOCALIDAD\n": "SANTAANAIXTLAHUACA(SANTAANA IXTLAHUACINGO)", "CLAVE INEGI": 150420031, "TIPODE\nASENTAMIENTO": "COMUNIDADINDIGENA", "NOMBRE": "SANTAANAIXTLAHUACA", "MONTO\nASIGNADO\n(PESOS)": 2399568, "LATITUD": 19.582684, "LONGITUD": -99.888182 }, "geometry": { "type": "Point", "coordinates": [ -99.888182, 19.582684 ] } },
{ "type": "Feature", "properties": { "fid": 174, "NO": 174, "ENTIDAD": "MEXICO", "MUNICIPIO": "IXTLAHUACA", "PUEBLO\nINDIGENAO\nAFROMEXICANO": "MAZAHUA", "LOCALIDAD\n": "SANTAANALALADERA", "CLAVE INEGI": 150420032, "TIPODE\nASENTAMIENTO": "COMUNIDADINDIGENA", "NOMBRE": "SANTAANALALADERA", "MONTO\nASIGNADO\n(PESOS)": 1835566, "LATITUD": 19.598314, "LONGITUD": -99.87737 }, "geometry": { "type": "Point", "coordinates": [ -99.87737, 19.598314 ] } },
{ "type": "Feature", "properties": { "fid": 175, "NO": 175, "ENTIDAD": "MEXICO", "MUNICIPIO": "IXTLAHUACA", "PUEBLO\nINDIGENAO\nAFROMEXICANO": "MAZAHUA", "LOCALIDAD\n": "SANTAMARIADEGUADALUPE", "CLAVE INEGI": 150420056, "TIPODE\nASENTAMIENTO": "COMUNIDADINDIGENA", "NOMBRE": "SANTAMARÍADEGUADALUPE", "MONTO\nASIGNADO\n(PESOS)": 496099, "LATITUD": 19.636449, "LONGITUD": -99.712433 }, "geometry": { "type": "Point", "coordinates": [ -99.712433, 19.636449 ] } },
{ "type": "Feature", "properties": { "fid": 176, "NO": 176, "ENTIDAD": "MEXICO", "MUNICIPIO": "IXTLAHUACA", "PUEBLO\nINDIGENAO\nAFROMEXICANO": "MAZAHUA", "LOCALIDAD\n": "SANTODOMINGOHUEREJE", "CLAVE INEGI": 150420068, "TIPODE\nASENTAMIENTO": "COMUNIDADINDIGENA", "NOMBRE": "SANTODOMINGOHUEREJE", "MONTO\nASIGNADO\n(PESOS)": 504991, "LATITUD": 19.621003, "LONGITUD": -99.755289 }, "geometry": { "type": "Point", "coordinates": [ -99.755289, 19.621003 ] } },
{ "type": "Feature", "properties": { "fid": 177, "NO": 177, "ENTIDAD": "MEXICO", "MUNICIPIO": "IXTLAHUACA", "PUEBLO\nINDIGENAO\nAFROMEXICANO": "MAZAHUA", "LOCALIDAD\n": "TROJES", "CLAVE INEGI": 150420048, "TIPODE\nASENTAMIENTO": "COMUNIDADINDIGENA", "NOMBRE": "BARRIODETROJES", "MONTO\nASIGNADO\n(PESOS)": 580978, "LATITUD": 19.630698, "LONGITUD": -99.757656 }, "geometry": { "type": "Point", "coordinates": [ -99.757656, 19.630698 ] } },
{ "type": "Feature", "properties": { "fid": 178, "NO": 178, "ENTIDAD": "MEXICO", "MUNICIPIO": "JILOTEPEC", "PUEBLO\nINDIGENAO\nAFROMEXICANO": "OTOMÍ", "LOCALIDAD\n": "CANALEJAS", "CLAVE INEGI": 150450007, "TIPODE\nASENTAMIENTO": "COMUNIDADINDIGENA", "NOMBRE": "VILLADECANALEJAS", "MONTO\nASIGNADO\n(PESOS)": 1579073, "LATITUD": 19.978434, "LONGITUD": -99.607088 }, "geometry": { "type": "Point", "coordinates": [ -99.607088, 19.978434 ] } },
{ "type": "Feature", "properties": { "fid": 179, "NO": 179, "ENTIDAD": "MEXICO", "MUNICIPIO": "JILOTEPEC", "PUEBLO\nINDIGENAO\nAFROMEXICANO": "OTOMÍ", "LOCALIDAD\n": "DENJHI", "CLAVE INEGI": 150450112, "TIPODE\nASENTAMIENTO": "COMUNIDADINDIGENA", "NOMBRE": "DENJHI", "MONTO\nASIGNADO\n(PESOS)": 1188062, "LATITUD": 19.924603, "LONGITUD": -99.535001 }, "geometry": { "type": "Point", "coordinates": [ -99.535001, 19.924603 ] } },
{ "type": "Feature", "properties": { "fid": 180, "NO": 180, "ENTIDAD": "MEXICO", "MUNICIPIO": "JILOTEPEC", "PUEBLO\nINDIGENAO\nAFROMEXICANO": "OTOMÍ", "LOCALIDAD\n": "DEXCANIALTO", "CLAVE INEGI": 150450012, "TIPODE\nASENTAMIENTO": "COMUNIDADINDIGENA", "NOMBRE": "DEXCANÍALTO", "MONTO\nASIGNADO\n(PESOS)": 1059293, "LATITUD": 19.934729, "LONGITUD": -99.49422 }, "geometry": { "type": "Point", "coordinates": [ -99.49422, 19.934729 ] } },
{ "type": "Feature", "properties": { "fid": 181, "NO": 181, "ENTIDAD": "MEXICO", "MUNICIPIO": "JILOTEPEC", "PUEBLO\nINDIGENAO\nAFROMEXICANO": "OTOMÍ", "LOCALIDAD\n": "EJIDODECOSCOMATEDELPROGRESO", "CLAVE INEGI": 150450161, "TIPODE\nASENTAMIENTO": "COMUNIDADINDIGENA", "NOMBRE": "EJIDOCOSCOMATEDELPROGRESO", "MONTO\nASIGNADO\n(PESOS)": 1505751, "LATITUD": 19.937422, "LONGITUD": -99.543246 }, "geometry": { "type": "Point", "coordinates": [ -99.543246, 19.937422 ] } },
{ "type": "Feature", "properties": { "fid": 182, "NO": 182, "ENTIDAD": "MEXICO", "MUNICIPIO": "JILOTEPEC", "PUEBLO\nINDIGENAO\nAFROMEXICANO": "OTOMÍ", "LOCALIDAD\n": "EJIDODEJILOTEPEC", "CLAVE INEGI": 150450110, "TIPODE\nASENTAMIENTO": "COMUNIDADINDIGENA", "NOMBRE": "EJIDODEJILOTEPEC", "MONTO\nASIGNADO\n(PESOS)": 951210, "LATITUD": 19.916882, "LONGITUD": -99.571164 }, "geometry": { "type": "Point", "coordinates": [ -99.571164, 19.916882 ] } },
{ "type": "Feature", "properties": { "fid": 183, "NO": 183, "ENTIDAD": "MEXICO", "MUNICIPIO": "JILOTEPEC", "PUEBLO\nINDIGENAO\nAFROMEXICANO": "OTOMÍ", "LOCALIDAD\n": "EJIDODELASMANZANAS", "CLAVE INEGI": 150450134, "TIPODE\nASENTAMIENTO": "COMUNIDADINDIGENA", "NOMBRE": "EJIDODELASMANZANAS", "MONTO\nASIGNADO\n(PESOS)": 207511, "LATITUD": 19.901269, "LONGITUD": -99.584016 }, "geometry": { "type": "Point", "coordinates": [ -99.584016, 19.901269 ] } },
{ "type": "Feature", "properties": { "fid": 184, "NO": 184, "ENTIDAD": "MEXICO", "MUNICIPIO": "JILOTEPEC", "PUEBLO\nINDIGENAO\nAFROMEXICANO": "OTOMÍ", "LOCALIDAD\n": "EJIDODESANLORENZOOCTEYUCO", "CLAVE INEGI": 150450108, "TIPODE\nASENTAMIENTO": "COMUNIDADINDIGENA", "NOMBRE": "EJIDODESANLORENZOOCTEYUCO", "MONTO\nASIGNADO\n(PESOS)": 1423298, "LATITUD": 19.931451, "LONGITUD": -99.5929 }, "geometry": { "type": "Point", "coordinates": [ -99.5929, 19.931451 ] } },
{ "type": "Feature", "properties": { "fid": 185, "NO": 185, "ENTIDAD": "MEXICO", "MUNICIPIO": "JILOTEPEC", "PUEBLO\nINDIGENAO\nAFROMEXICANO": "OTOMÍ", "LOCALIDAD\n": "ELDURAZNODECUAUHTEMOC", "CLAVE INEGI": 150450015, "TIPODE\nASENTAMIENTO": "COMUNIDADINDIGENA", "NOMBRE": "ELDURAZNODECUAUHTÉMOC", "MONTO\nASIGNADO\n(PESOS)": 691724, "LATITUD": 19.913149, "LONGITUD": -99.605251 }, "geometry": { "type": "Point", "coordinates": [ -99.605251, 19.913149 ] } },
{ "type": "Feature", "properties": { "fid": 186, "NO": 186, "ENTIDAD": "MEXICO", "MUNICIPIO": "JILOTEPEC", "PUEBLO\nINDIGENAO\nAFROMEXICANO": "OTOMÍ", "LOCALIDAD\n": "ELXHITEY", "CLAVE INEGI": 150450105, "TIPODE\nASENTAMIENTO": "COMUNIDADINDIGENA", "NOMBRE": "ELXHITEY", "MONTO\nASIGNADO\n(PESOS)": 2478788, "LATITUD": 19.981487, "LONGITUD": -99.527957 }, "geometry": { "type": "Point", "coordinates": [ -99.527957, 19.981487 ] } },
{ "type": "Feature", "properties": { "fid": 187, "NO": 187, "ENTIDAD": "MEXICO", "MUNICIPIO": "JILOTEPEC", "PUEBLO\nINDIGENAO\nAFROMEXICANO": "OTOMÍ", "LOCALIDAD\n": "LASHUERTAS", "CLAVE INEGI": 150450016, "TIPODE\nASENTAMIENTO": "COMUNIDADINDIGENA", "NOMBRE": "LASHUERTAS", "MONTO\nASIGNADO\n(PESOS)": 139608, "LATITUD": 19.970634, "LONGITUD": -99.557753 }, "geometry": { "type": "Point", "coordinates": [ -99.557753, 19.970634 ] } },
{ "type": "Feature", "properties": { "fid": 188, "NO": 188, "ENTIDAD": "MEXICO", "MUNICIPIO": "JILOTEPEC", "PUEBLO\nINDIGENAO\nAFROMEXICANO": "OTOMÍ", "LOCALIDAD\n": "LASMANZANAS", "CLAVE INEGI": 150450019, "TIPODE\nASENTAMIENTO": "COMUNIDADINDIGENA", "NOMBRE": "LASMANZANAS", "MONTO\nASIGNADO\n(PESOS)": 96765, "LATITUD": 19.950694, "LONGITUD": -99.561092 }, "geometry": { "type": "Point", "coordinates": [ -99.561092, 19.950694 ] } },
{ "type": "Feature", "properties": { "fid": 189, "NO": 189, "ENTIDAD": "MEXICO", "MUNICIPIO": "JILOTEPEC", "PUEBLO\nINDIGENAO\nAFROMEXICANO": "OTOMÍ", "LOCALIDAD\n": "MAGUEYCITOS", "CLAVE INEGI": 150450018, "TIPODE\nASENTAMIENTO": "COMUNIDADINDIGENA", "NOMBRE": "MAGUEYCITOS", "MONTO\nASIGNADO\n(PESOS)": 302091, "LATITUD": 19.9413, "LONGITUD": -99.623774 }, "geometry": { "type": "Point", "coordinates": [ -99.623774, 19.9413 ] } },
{ "type": "Feature", "properties": { "fid": 190, "NO": 190, "ENTIDAD": "MEXICO", "MUNICIPIO": "JILOTEPEC", "PUEBLO\nINDIGENAO\nAFROMEXICANO": "OTOMÍ", "LOCALIDAD\n": "OCTEYUCO2000", "CLAVE INEGI": 150450163, "TIPODE\nASENTAMIENTO": "COMUNIDADINDIGENA", "NOMBRE": "OCTEYUCO2000", "MONTO\nASIGNADO\n(PESOS)": 1179170, "LATITUD": 19.963187, "LONGITUD": -99.587926 }, "geometry": { "type": "Point", "coordinates": [ -99.587926, 19.963187 ] } },
{ "type": "Feature", "properties": { "fid": 191, "NO": 191, "ENTIDAD": "MEXICO", "MUNICIPIO": "JILOTEPEC", "PUEBLO\nINDIGENAO\nAFROMEXICANO": "OTOMÍ", "LOCALIDAD\n": "OJODEAGUA", "CLAVE INEGI": 150450116, "TIPODE\nASENTAMIENTO": "COMUNIDADINDIGENA", "NOMBRE": "OJODEAGUA", "MONTO\nASIGNADO\n(PESOS)": 1993767, "LATITUD": 19.97283, "LONGITUD": -99.466677 }, "geometry": { "type": "Point", "coordinates": [ -99.466677, 19.97283 ] } },
{ "type": "Feature", "properties": { "fid": 192, "NO": 192, "ENTIDAD": "MEXICO", "MUNICIPIO": "JILOTEPEC", "PUEBLO\nINDIGENAO\nAFROMEXICANO": "OTOMÍ", "LOCALIDAD\n": "RANCHOSANTAANAELSAUZ", "CLAVE INEGI": 150450142, "TIPODE\nASENTAMIENTO": "COMUNIDADINDIGENA", "NOMBRE": "COLONIAXHISDA", "MONTO\nASIGNADO\n(PESOS)": 101615, "LATITUD": 19.949169, "LONGITUD": -99.531849 }, "geometry": { "type": "Point", "coordinates": [ -99.531849, 19.949169 ] } },
{ "type": "Feature", "properties": { "fid": 193, "NO": 193, "ENTIDAD": "MEXICO", "MUNICIPIO": "JILOTEPEC", "PUEBLO\nINDIGENAO\nAFROMEXICANO": "OTOMÍ", "LOCALIDAD\n": "SANLORENZONENAMICOYAN", "CLAVE INEGI": 150450024, "TIPODE\nASENTAMIENTO": "COMUNIDADINDIGENA", "NOMBRE": "SANLORENZONENAMICOYAN", "MONTO\nASIGNADO\n(PESOS)": 1985683, "LATITUD": 20.139443, "LONGITUD": -99.637002 }, "geometry": { "type": "Point", "coordinates": [ -99.637002, 20.139443 ] } },
{ "type": "Feature", "properties": { "fid": 194, "NO": 194, "ENTIDAD": "MEXICO", "MUNICIPIO": "JILOTEPEC", "PUEBLO\nINDIGENAO\nAFROMEXICANO": "OTOMÍ", "LOCALIDAD\n": "SANPABLOHUANTEPEC", "CLAVE INEGI": 150450028, "TIPODE\nASENTAMIENTO": "COMUNIDADINDIGENA", "NOMBRE": "SANPABLOHUANTEPEC", "MONTO\nASIGNADO\n(PESOS)": 103232, "LATITUD": 19.968497, "LONGITUD": -99.490792 }, "geometry": { "type": "Point", "coordinates": [ -99.490792, 19.968497 ] } },
{ "type": "Feature", "properties": { "fid": 195, "NO": 195, "ENTIDAD": "MEXICO", "MUNICIPIO": "JILOTEPEC", "PUEBLO\nINDIGENAO\nAFROMEXICANO": "OTOMÍ", "LOCALIDAD\n": "TEUPAN(PIEDRASNEGRAS)", "CLAVE INEGI": 150450153, "TIPODE\nASENTAMIENTO": "COMUNIDADINDIGENA", "NOMBRE": "TEUPAN", "MONTO\nASIGNADO\n(PESOS)": 816213, "LATITUD": 19.939267, "LONGITUD": -99.697045 }, "geometry": { "type": "Point", "coordinates": [ -99.697045, 19.939267 ] } },
{ "type": "Feature", "properties": { "fid": 196, "NO": 196, "ENTIDAD": "MEXICO", "MUNICIPIO": "JILOTEPEC", "PUEBLO\nINDIGENAO\nAFROMEXICANO": "OTOMÍ", "LOCALIDAD\n": "XHIMOJAY", "CLAVE INEGI": 150450033, "TIPODE\nASENTAMIENTO": "COMUNIDADINDIGENA", "NOMBRE": "XHIMOJAY", "MONTO\nASIGNADO\n(PESOS)": 974653, "LATITUD": 19.905451, "LONGITUD": -99.636743 }, "geometry": { "type": "Point", "coordinates": [ -99.636743, 19.905451 ] } },
{ "type": "Feature", "properties": { "fid": 197, "NO": 197, "ENTIDAD": "MEXICO", "MUNICIPIO": "JILOTEPEC", "PUEBLO\nINDIGENAO\nAFROMEXICANO": "OTOMÍ", "LOCALIDAD\n": "XHIXHATA", "CLAVE INEGI": 150450032, "TIPODE\nASENTAMIENTO": "COMUNIDADINDIGENA", "NOMBRE": "XHIXHATA", "MONTO\nASIGNADO\n(PESOS)": 110507, "LATITUD": 19.970757, "LONGITUD": -99.546119 }, "geometry": { "type": "Point", "coordinates": [ -99.546119, 19.970757 ] } },
{ "type": "Feature", "properties": { "fid": 198, "NO": 198, "ENTIDAD": "MEXICO", "MUNICIPIO": "JIQUIPILCO", "PUEBLO\nINDIGENAO\nAFROMEXICANO": "OTOMÍ", "LOCALIDAD\n": "BARRIOPRIMEROBUENOSAIRES", "CLAVE INEGI": 150470004, "TIPODE\nASENTAMIENTO": "COMUNIDADINDIGENA", "NOMBRE": "BARRIOPRIMERODEBUENOSAIRES", "MONTO\nASIGNADO\n(PESOS)": 559960, "LATITUD": 19.627926, "LONGITUD": -99.660887 }, "geometry": { "type": "Point", "coordinates": [ -99.660887, 19.627926 ] } },
{ "type": "Feature", "properties": { "fid": 199, "NO": 199, "ENTIDAD": "MEXICO", "MUNICIPIO": "JIQUIPILCO", "PUEBLO\nINDIGENAO\nAFROMEXICANO": "OTOMÍ", "LOCALIDAD\n": "BUENAVISTA", "CLAVE INEGI": 150470079, "TIPODE\nASENTAMIENTO": "COMUNIDADINDIGENA", "NOMBRE": "BUENAVISTA", "MONTO\nASIGNADO\n(PESOS)": 172752, "LATITUD": 19.511403, "LONGITUD": -99.619481 }, "geometry": { "type": "Point", "coordinates": [ -99.619481, 19.511403 ] } },
{ "type": "Feature", "properties": { "fid": 200, "NO": 200, "ENTIDAD": "MEXICO", "MUNICIPIO": "JIQUIPILCO", "PUEBLO\nINDIGENAO\nAFROMEXICANO": "OTOMÍ", "LOCALIDAD\n": "BUENOSAIRES", "CLAVE INEGI": 150470067, "TIPODE\nASENTAMIENTO": "COMUNIDADINDIGENA", "NOMBRE": "BUENOSAIRES", "MONTO\nASIGNADO\n(PESOS)": 1652874, "LATITUD": 19.617192, "LONGITUD": -99.668134 }, "geometry": { "type": "Point", "coordinates": [ -99.668134, 19.617192 ] } },
{ "type": "Feature", "properties": { "fid": 201, "NO": 201, "ENTIDAD": "MEXICO", "MUNICIPIO": "JIQUIPILCO", "PUEBLO\nINDIGENAO\nAFROMEXICANO": "OTOMÍ", "LOCALIDAD\n": "COLONIABENITOJUAREZSANFELIPE SANTIAGO", "CLAVE INEGI": 150470060, "TIPODE\nASENTAMIENTO": "COMUNIDADINDIGENA", "NOMBRE": "COLONIABENITOJUÁREZ", "MONTO\nASIGNADO\n(PESOS)": 449214, "LATITUD": 19.615881, "LONGITUD": -99.642504 }, "geometry": { "type": "Point", "coordinates": [ -99.642504, 19.615881 ] } },
{ "type": "Feature", "properties": { "fid": 202, "NO": 202, "ENTIDAD": "MEXICO", "MUNICIPIO": "JIQUIPILCO", "PUEBLO\nINDIGENAO\nAFROMEXICANO": "OTOMÍ", "LOCALIDAD\n": "COLONIAEMILIANOZAPATA", "CLAVE INEGI": 150470030, "TIPODE\nASENTAMIENTO": "COMUNIDADINDIGENA", "NOMBRE": "COLONIAEMILIANOZAPATA", "MONTO\nASIGNADO\n(PESOS)": 971552, "LATITUD": 19.684484, "LONGITUD": -99.65595 }, "geometry": { "type": "Point", "coordinates": [ -99.65595, 19.684484 ] } },
{ "type": "Feature", "properties": { "fid": 203, "NO": 203, "ENTIDAD": "MEXICO", "MUNICIPIO": "JIQUIPILCO", "PUEBLO\nINDIGENAO\nAFROMEXICANO": "MAZAHUA", "LOCALIDAD\n": "COLONIALAPURISIMA", "CLAVE INEGI": 150470070, "TIPODE\nASENTAMIENTO": "COMUNIDADINDIGENA", "NOMBRE": "BARRIOLAPURÍSIMA", "MONTO\nASIGNADO\n(PESOS)": 928576, "LATITUD": 19.577335, "LONGITUD": -99.67519 }, "geometry": { "type": "Point", "coordinates": [ -99.67519, 19.577335 ] } },
{ "type": "Feature", "properties": { "fid": 204, "NO": 204, "ENTIDAD": "MEXICO", "MUNICIPIO": "JIQUIPILCO", "PUEBLO\nINDIGENAO\nAFROMEXICANO": "OTOMÍ", "LOCALIDAD\n": "COLONIAMORELOSSANFELIPEYSANTIAGO", "CLAVE INEGI": 150470051, "TIPODE\nASENTAMIENTO": "COMUNIDADINDIGENA", "NOMBRE": "COLONIAMORELOSSANFELIPEYSANTIAGO", "MONTO\nASIGNADO\n(PESOS)": 343317, "LATITUD": 19.618384, "LONGITUD": -99.652904 }, "geometry": { "type": "Point", "coordinates": [ -99.652904, 19.618384 ] } },
{ "type": "Feature", "properties": { "fid": 205, "NO": 205, "ENTIDAD": "MEXICO", "MUNICIPIO": "JIQUIPILCO", "PUEBLO\nINDIGENAO\nAFROMEXICANO": "OTOMÍ", "LOCALIDAD\n": "DOLORESAMARILLAS", "CLAVE INEGI": 150470006, "TIPODE\nASENTAMIENTO": "COMUNIDADINDIGENA", "NOMBRE": "DOLORESAMARILLAS", "MONTO\nASIGNADO\n(PESOS)": 876032, "LATITUD": 19.62665, "LONGITUD": -99.707441 }, "geometry": { "type": "Point", "coordinates": [ -99.707441, 19.62665 ] } },
{ "type": "Feature", "properties": { "fid": 206, "NO": 206, "ENTIDAD": "MEXICO", "MUNICIPIO": "JIQUIPILCO", "PUEBLO\nINDIGENAO\nAFROMEXICANO": "OTOMÍ", "LOCALIDAD\n": "EJIDODEMOXTEJE", "CLAVE INEGI": 150470081, "TIPODE\nASENTAMIENTO": "COMUNIDADINDIGENA", "NOMBRE": "EJIDODEMOXTEJE", "MONTO\nASIGNADO\n(PESOS)": 349784, "LATITUD": 19.573082, "LONGITUD": -99.644512 }, "geometry": { "type": "Point", "coordinates": [ -99.644512, 19.573082 ] } },
{ "type": "Feature", "properties": { "fid": 207, "NO": 207, "ENTIDAD": "MEXICO", "MUNICIPIO": "JIQUIPILCO", "PUEBLO\nINDIGENAO\nAFROMEXICANO": "OTOMÍ", "LOCALIDAD\n": "EJIDOLLANOGRANDE(PLANTAPILOTO)", "CLAVE INEGI": 150470029, "TIPODE\nASENTAMIENTO": "COMUNIDADINDIGENA", "NOMBRE": "EJIDOLLANOGRANDE", "MONTO\nASIGNADO\n(PESOS)": 918876, "LATITUD": 19.571347, "LONGITUD": -99.666599 }, "geometry": { "type": "Point", "coordinates": [ -99.666599, 19.571347 ] } },
{ "type": "Feature", "properties": { "fid": 208, "NO": 208, "ENTIDAD": "MEXICO", "MUNICIPIO": "JIQUIPILCO", "PUEBLO\nINDIGENAO\nAFROMEXICANO": "OTOMÍ", "LOCALIDAD\n": "EJIDOLOMADEMALACOTA(LOMADE MALACOTA)", "CLAVE INEGI": 150470010, "TIPODE\nASENTAMIENTO": "COMUNIDADINDIGENA", "NOMBRE": "EJIDOLOMADEMALACOTA", "MONTO\nASIGNADO\n(PESOS)": 1428148, "LATITUD": 19.65871, "LONGITUD": -99.67053 }, "geometry": { "type": "Point", "coordinates": [ -99.67053, 19.65871 ] } },
{ "type": "Feature", "properties": { "fid": 209, "NO": 209, "ENTIDAD": "MEXICO", "MUNICIPIO": "JIQUIPILCO", "PUEBLO\nINDIGENAO\nAFROMEXICANO": "OTOMÍ", "LOCALIDAD\n": "ELRINCONLOMADEHIDALGO", "CLAVE INEGI": 150470038, "TIPODE\nASENTAMIENTO": "COMUNIDADINDIGENA", "NOMBRE": "RINCÓNLOMADEHIDALGO", "MONTO\nASIGNADO\n(PESOS)": 211553, "LATITUD": 19.603748, "LONGITUD": -99.638574 }, "geometry": { "type": "Point", "coordinates": [ -99.638574, 19.603748 ] } },
{ "type": "Feature", "properties": { "fid": 210, "NO": 210, "ENTIDAD": "MEXICO", "MUNICIPIO": "JIQUIPILCO", "PUEBLO\nINDIGENAO\nAFROMEXICANO": "OTOMÍ", "LOCALIDAD\n": "LANOPALERA", "CLAVE INEGI": 150470059, "TIPODE\nASENTAMIENTO": "COMUNIDADINDIGENA", "NOMBRE": "COLONIALANOPALERA", "MONTO\nASIGNADO\n(PESOS)": 357868, "LATITUD": 19.64474, "LONGITUD": -99.642699 }, "geometry": { "type": "Point", "coordinates": [ -99.642699, 19.64474 ] } },
{ "type": "Feature", "properties": { "fid": 211, "NO": 211, "ENTIDAD": "MEXICO", "MUNICIPIO": "JIQUIPILCO", "PUEBLO\nINDIGENAO\nAFROMEXICANO": "OTOMÍ", "LOCALIDAD\n": "LASPALOMITAS(PUERTOJIQUIPILLI)", "CLAVE INEGI": 150470052, "TIPODE\nASENTAMIENTO": "COMUNIDADINDIGENA", "NOMBRE": "LASPALOMITAS", "MONTO\nASIGNADO\n(PESOS)": 98458, "LATITUD": 19.560734, "LONGITUD": -99.565718 }, "geometry": { "type": "Point", "coordinates": [ -99.565718, 19.560734 ] } },
{ "type": "Feature", "properties": { "fid": 212, "NO": 212, "ENTIDAD": "MEXICO", "MUNICIPIO": "JIQUIPILCO", "PUEBLO\nINDIGENAO\nAFROMEXICANO": "OTOMÍ", "LOCALIDAD\n": "LOMADEENDOTZI(MANZANASEXTA)", "CLAVE INEGI": 150470007, "TIPODE\nASENTAMIENTO": "COMUNIDADINDIGENA", "NOMBRE": "MANZANASEXTAPARTEORIENTE", "MONTO\nASIGNADO\n(PESOS)": 1168662, "LATITUD": 19.534421, "LONGITUD": -99.588345 }, "geometry": { "type": "Point", "coordinates": [ -99.588345, 19.534421 ] } },
{ "type": "Feature", "properties": { "fid": 213, "NO": 213, "ENTIDAD": "MEXICO", "MUNICIPIO": "JIQUIPILCO", "PUEBLO\nINDIGENAO\nAFROMEXICANO": "OTOMÍ", "LOCALIDAD\n": "LOMADESANFELIPE", "CLAVE INEGI": 150470011, "TIPODE\nASENTAMIENTO": "COMUNIDADINDIGENA", "NOMBRE": "LOMADESANFELIPE", "MONTO\nASIGNADO\n(PESOS)": 755585, "LATITUD": 19.585144, "LONGITUD": -99.667913 }, "geometry": { "type": "Point", "coordinates": [ -99.667913, 19.585144 ] } },
{ "type": "Feature", "properties": { "fid": 214, "NO": 214, "ENTIDAD": "MEXICO", "MUNICIPIO": "JIQUIPILCO", "PUEBLO\nINDIGENAO\nAFROMEXICANO": "OTOMÍ", "LOCALIDAD\n": "LOMADELASTILLERO", "CLAVE INEGI": 150470009, "TIPODE\nASENTAMIENTO": "COMUNIDADINDIGENA", "NOMBRE": "LOMADELASTILLERO", "MONTO\nASIGNADO\n(PESOS)": 708700, "LATITUD": 19.585383, "LONGITUD": -99.673325 }, "geometry": { "type": "Point", "coordinates": [ -99.673325, 19.585383 ] } },
{ "type": "Feature", "properties": { "fid": 215, "NO": 215, "ENTIDAD": "MEXICO", "MUNICIPIO": "JIQUIPILCO", "PUEBLO\nINDIGENAO\nAFROMEXICANO": "OTOMÍ", "LOCALIDAD\n": "LOMAHERMOSA", "CLAVE INEGI": 150470032, "TIPODE\nASENTAMIENTO": "COMUNIDADINDIGENA", "NOMBRE": "LOMAHERMOSA", "MONTO\nASIGNADO\n(PESOS)": 892200, "LATITUD": 19.63426, "LONGITUD": -99.62969 }, "geometry": { "type": "Point", "coordinates": [ -99.62969, 19.63426 ] } },
{ "type": "Feature", "properties": { "fid": 216, "NO": 216, "ENTIDAD": "MEXICO", "MUNICIPIO": "JIQUIPILCO", "PUEBLO\nINDIGENAO\nAFROMEXICANO": "OTOMÍ", "LOCALIDAD\n": "LOMAHIDALGOCOLONIABENITOJUAREZ", "CLAVE INEGI": 150470080, "TIPODE\nASENTAMIENTO": "COMUNIDADINDIGENA", "NOMBRE": "LOMADEHIDALGOCOLONIABENITOJUÁREZ", "MONTO\nASIGNADO\n(PESOS)": 874415, "LATITUD": 19.595522, "LONGITUD": -99.642654 }, "geometry": { "type": "Point", "coordinates": [ -99.642654, 19.595522 ] } },
{ "type": "Feature", "properties": { "fid": 217, "NO": 217, "ENTIDAD": "MEXICO", "MUNICIPIO": "JIQUIPILCO", "PUEBLO\nINDIGENAO\nAFROMEXICANO": "OTOMÍ", "LOCALIDAD\n": "LOMAHIDALGOMANZANACUARTA", "CLAVE INEGI": 150470087, "TIPODE\nASENTAMIENTO": "COMUNIDADINDIGENA", "NOMBRE": "LOMADEHIDALGOMANZANACUARTA", "MONTO\nASIGNADO\n(PESOS)": 340892, "LATITUD": 19.591577, "LONGITUD": -99.646721 }, "geometry": { "type": "Point", "coordinates": [ -99.646721, 19.591577 ] } },
{ "type": "Feature", "properties": { "fid": 218, "NO": 218, "ENTIDAD": "MEXICO", "MUNICIPIO": "JIQUIPILCO", "PUEBLO\nINDIGENAO\nAFROMEXICANO": "OTOMÍ", "LOCALIDAD\n": "LOMAVICENTEGUERRERO", "CLAVE INEGI": 150470012, "TIPODE\nASENTAMIENTO": "COMUNIDADINDIGENA", "NOMBRE": "LOMAVICENTEGUERRERO", "MONTO\nASIGNADO\n(PESOS)": 720017, "LATITUD": 19.583032, "LONGITUD": -99.654138 }, "geometry": { "type": "Point", "coordinates": [ -99.654138, 19.583032 ] } },
{ "type": "Feature", "properties": { "fid": 219, "NO": 219, "ENTIDAD": "MEXICO", "MUNICIPIO": "JIQUIPILCO", "PUEBLO\nINDIGENAO\nAFROMEXICANO": "OTOMÍ", "LOCALIDAD\n": "LOSORTICES", "CLAVE INEGI": 150470082, "TIPODE\nASENTAMIENTO": "COMUNIDADINDIGENA", "NOMBRE": "LOSORTICES", "MONTO\nASIGNADO\n(PESOS)": 428196, "LATITUD": 19.570437, "LONGITUD": -99.624969 }, "geometry": { "type": "Point", "coordinates": [ -99.624969, 19.570437 ] } },
{ "type": "Feature", "properties": { "fid": 220, "NO": 220, "ENTIDAD": "MEXICO", "MUNICIPIO": "JIQUIPILCO", "PUEBLO\nINDIGENAO\nAFROMEXICANO": "OTOMÍ", "LOCALIDAD\n": "MANZANACUARTA", "CLAVE INEGI": 150470033, "TIPODE\nASENTAMIENTO": "COMUNIDADINDIGENA", "NOMBRE": "MANZANACUARTA", "MONTO\nASIGNADO\n(PESOS)": 992437, "LATITUD": 19.548784, "LONGITUD": -99.6134 }, "geometry": { "type": "Point", "coordinates": [ -99.6134, 19.548784 ] } },