{
"type": "FeatureCollection",
"name": "campeche_loc_monto",
"crs": { "type": "name", "properties": { "name": "urn:ogc:def:crs:OGC:1.3:CRS84" } },
"features": [
{ "type": "Feature", "properties": { "fid": 1, "NO": 1, "ENTIDAD": "CAMPECHE", "MUNICIPIO": "CALAKMUL", "PUEBLO\nINDIGENA O\nAFROMEXICANO": "CH'OL", "LOCALIDAD": "ARROYO NEGRO", "CLAVE LOC": 40100018, "TIPO DE\nASENTAMIENTO": "COMUNIDAD INDIGENA", "NOMBRE": "ARROYO NEGRO", "MONTO\nASIGNADO\n(PESOS)": 299665, "LATITUD": 17.859307, "LONGITUD": -89.246613 }, "geometry": { "type": "Point", "coordinates": [ -89.246613, 17.859307 ] } },
{ "type": "Feature", "properties": { "fid": 2, "NO": 2, "ENTIDAD": "CAMPECHE", "MUNICIPIO": "CALAKMUL", "PUEBLO\nINDIGENA O\nAFROMEXICANO": "CH'OL", "LOCALIDAD": "BECAN ", "CLAVE LOC": 40100021, "TIPO DE\nASENTAMIENTO": "LOCALIDAD CON POBLACION\nINDIGENA", "NOMBRE": "BECAN", "MONTO\nASIGNADO\n(PESOS)": 339275, "LATITUD": 18.512937, "LONGITUD": -89.462504 }, "geometry": { "type": "Point", "coordinates": [ -89.462504, 18.512937 ] } },
{ "type": "Feature", "properties": { "fid": 3, "NO": 3, "ENTIDAD": "CAMPECHE", "MUNICIPIO": "CALAKMUL", "PUEBLO\nINDIGENA O\nAFROMEXICANO": "CH'OL", "LOCALIDAD": "BLASILLO ", "CLAVE LOC": 40100026, "TIPO DE\nASENTAMIENTO": "COMUNIDAD INDIGENA", "NOMBRE": "BLASILLO", "MONTO\nASIGNADO\n(PESOS)": 301282, "LATITUD": 18.111018, "LONGITUD": -89.311234 }, "geometry": { "type": "Point", "coordinates": [ -89.311234, 18.111018 ] } },
{ "type": "Feature", "properties": { "fid": 4, "NO": 4, "ENTIDAD": "CAMPECHE", "MUNICIPIO": "CALAKMUL", "PUEBLO\nINDIGENA O\nAFROMEXICANO": "CH'OL", "LOCALIDAD": "CENTAUROS DEL NORTE", "CLAVE LOC": 40100049, "TIPO DE\nASENTAMIENTO": "COMUNIDAD INDIGENA", "NOMBRE": "CENTAUROS DEL NORTE", "MONTO\nASIGNADO\n(PESOS)": 327958, "LATITUD": 18.35442, "LONGITUD": -89.538306 }, "geometry": { "type": "Point", "coordinates": [ -89.538306, 18.35442 ] } },
{ "type": "Feature", "properties": { "fid": 5, "NO": 5, "ENTIDAD": "CAMPECHE", "MUNICIPIO": "CALAKMUL", "PUEBLO\nINDIGENA O\nAFROMEXICANO": "TOTONACO", "LOCALIDAD": "CERRO DE LAS FLORES ", "CLAVE LOC": 40100053, "TIPO DE\nASENTAMIENTO": "COMUNIDAD INDIGENA", "NOMBRE": "CERRO DE LAS FLORES", "MONTO\nASIGNADO\n(PESOS)": 166285, "LATITUD": 17.9953, "LONGITUD": -89.215657 }, "geometry": { "type": "Point", "coordinates": [ -89.215657, 17.9953 ] } },
{ "type": "Feature", "properties": { "fid": 6, "NO": 6, "ENTIDAD": "CAMPECHE", "MUNICIPIO": "CALAKMUL", "PUEBLO\nINDIGENA O\nAFROMEXICANO": "CH'OL", "LOCALIDAD": "CINCO DE MAYO (PLAN DE AYALA) ", "CLAVE LOC": 40100179, "TIPO DE\nASENTAMIENTO": "COMUNIDAD INDIGENA", "NOMBRE": "CINCO DE MAYO (PLAN DE AYALA)", "MONTO\nASIGNADO\n(PESOS)": 475890, "LATITUD": 18.070032, "LONGITUD": -89.300552 }, "geometry": { "type": "Point", "coordinates": [ -89.300552, 18.070032 ] } },
{ "type": "Feature", "properties": { "fid": 7, "NO": 7, "ENTIDAD": "CAMPECHE", "MUNICIPIO": "CALAKMUL", "PUEBLO\nINDIGENA O\nAFROMEXICANO": "CH'OL", "LOCALIDAD": "CONCEPCION ", "CLAVE LOC": 40100064, "TIPO DE\nASENTAMIENTO": "LOCALIDAD CON POBLACION\nINDIGENA", "NOMBRE": "CONCEPCION", "MONTO\nASIGNADO\n(PESOS)": 343317, "LATITUD": 18.620305, "LONGITUD": -90.13381 }, "geometry": { "type": "Point", "coordinates": [ -90.13381, 18.620305 ] } },
{ "type": "Feature", "properties": { "fid": 8, "NO": 8, "ENTIDAD": "CAMPECHE", "MUNICIPIO": "CALAKMUL", "PUEBLO\nINDIGENA O\nAFROMEXICANO": "CH'OL", "LOCALIDAD": "CONSTITUCION ", "CLAVE LOC": 40100066, "TIPO DE\nASENTAMIENTO": "COMUNIDAD INDIGENA", "NOMBRE": "CONSTITUCIÓN", "MONTO\nASIGNADO\n(PESOS)": 1205038, "LATITUD": 18.626925, "LONGITUD": -90.135826 }, "geometry": { "type": "Point", "coordinates": [ -90.135826, 18.626925 ] } },
{ "type": "Feature", "properties": { "fid": 9, "NO": 9, "ENTIDAD": "CAMPECHE", "MUNICIPIO": "CALAKMUL", "PUEBLO\nINDIGENA O\nAFROMEXICANO": "CH'OL", "LOCALIDAD": "CRISTOBAL COLON ", "CLAVE LOC": 40100068, "TIPO DE\nASENTAMIENTO": "COMUNIDAD INDIGENA", "NOMBRE": "CRISTÓBAL COLÓN", "MONTO\nASIGNADO\n(PESOS)": 376460, "LATITUD": 18.221909, "LONGITUD": -89.451913 }, "geometry": { "type": "Point", "coordinates": [ -89.451913, 18.221909 ] } },
{ "type": "Feature", "properties": { "fid": 10, "NO": 10, "ENTIDAD": "CAMPECHE", "MUNICIPIO": "CALAKMUL", "PUEBLO\nINDIGENA O\nAFROMEXICANO": "CH'OL", "LOCALIDAD": "DOS LAGUNAS", "CLAVE LOC": 40100075, "TIPO DE\nASENTAMIENTO": "LOCALIDAD CON POBLACION\nINDIGENA", "NOMBRE": "DOS LAGUNAS", "MONTO\nASIGNADO\n(PESOS)": 272181, "LATITUD": 18.893654, "LONGITUD": -89.350917 }, "geometry": { "type": "Point", "coordinates": [ -89.350917, 18.893654 ] } },
{ "type": "Feature", "properties": { "fid": 11, "NO": 11, "ENTIDAD": "CAMPECHE", "MUNICIPIO": "CALAKMUL", "PUEBLO\nINDIGENA O\nAFROMEXICANO": "CH'OL", "LOCALIDAD": "DOS LAGUNAS ", "CLAVE LOC": 40100075, "TIPO DE\nASENTAMIENTO": "COMUNIDAD INDIGENA", "NOMBRE": "DOS LAGUNAS NORTE", "MONTO\nASIGNADO\n(PESOS)": 272181, "LATITUD": 18.893654, "LONGITUD": -89.350917 }, "geometry": { "type": "Point", "coordinates": [ -89.350917, 18.893654 ] } },
{ "type": "Feature", "properties": { "fid": 12, "NO": 12, "ENTIDAD": "CAMPECHE", "MUNICIPIO": "CALAKMUL", "PUEBLO\nINDIGENA O\nAFROMEXICANO": "CH'OL", "LOCALIDAD": "DOS NACIONES ", "CLAVE LOC": 40100077, "TIPO DE\nASENTAMIENTO": "COMUNIDAD INDIGENA", "NOMBRE": "DOS NACIONES", "MONTO\nASIGNADO\n(PESOS)": 334425, "LATITUD": 17.972083, "LONGITUD": -89.354848 }, "geometry": { "type": "Point", "coordinates": [ -89.354848, 17.972083 ] } },
{ "type": "Feature", "properties": { "fid": 13, "NO": 13, "ENTIDAD": "CAMPECHE", "MUNICIPIO": "CALAKMUL", "PUEBLO\nINDIGENA O\nAFROMEXICANO": "CH'OL", "LOCALIDAD": "EL CARMEN II (LAS CARMELAS)", "CLAVE LOC": 40100040, "TIPO DE\nASENTAMIENTO": "COMUNIDAD INDIGENA", "NOMBRE": "EL CARMEN II", "MONTO\nASIGNADO\n(PESOS)": 356251, "LATITUD": 18.15784, "LONGITUD": -89.413826 }, "geometry": { "type": "Point", "coordinates": [ -89.413826, 18.15784 ] } },
{ "type": "Feature", "properties": { "fid": 14, "NO": 14, "ENTIDAD": "CAMPECHE", "MUNICIPIO": "CALAKMUL", "PUEBLO\nINDIGENA O\nAFROMEXICANO": "CH'OL", "LOCALIDAD": "EL CHICHONAL ", "CLAVE LOC": 40100060, "TIPO DE\nASENTAMIENTO": "COMUNIDAD INDIGENA", "NOMBRE": "EL CHICHONAL", "MONTO\nASIGNADO\n(PESOS)": 225296, "LATITUD": 18.526059, "LONGITUD": -89.553776 }, "geometry": { "type": "Point", "coordinates": [ -89.553776, 18.526059 ] } },
{ "type": "Feature", "properties": { "fid": 15, "NO": 15, "ENTIDAD": "CAMPECHE", "MUNICIPIO": "CALAKMUL", "PUEBLO\nINDIGENA O\nAFROMEXICANO": "CH'OL", "LOCALIDAD": "EL MANANTIAL ", "CLAVE LOC": 40100141, "TIPO DE\nASENTAMIENTO": "COMUNIDAD INDIGENA", "NOMBRE": "EL MANANTIAL", "MONTO\nASIGNADO\n(PESOS)": 409604, "LATITUD": 18.258512, "LONGITUD": -89.379197 }, "geometry": { "type": "Point", "coordinates": [ -89.379197, 18.258512 ] } },
{ "type": "Feature", "properties": { "fid": 16, "NO": 16, "ENTIDAD": "CAMPECHE", "MUNICIPIO": "CALAKMUL", "PUEBLO\nINDIGENA O\nAFROMEXICANO": "TSELTAL", "LOCALIDAD": "EL REFUGIO ", "CLAVE LOC": 40100194, "TIPO DE\nASENTAMIENTO": "COMUNIDAD INDIGENA", "NOMBRE": "EL REFUGIO", "MONTO\nASIGNADO\n(PESOS)": 197811, "LATITUD": 18.803424, "LONGITUD": -89.372274 }, "geometry": { "type": "Point", "coordinates": [ -89.372274, 18.803424 ] } },
{ "type": "Feature", "properties": { "fid": 17, "NO": 17, "ENTIDAD": "CAMPECHE", "MUNICIPIO": "CALAKMUL", "PUEBLO\nINDIGENA O\nAFROMEXICANO": "CH'OL", "LOCALIDAD": "EL TESORO", "CLAVE LOC": 40100238, "TIPO DE\nASENTAMIENTO": "COMUNIDAD INDIGENA", "NOMBRE": "EL TESORO", "MONTO\nASIGNADO\n(PESOS)": 422537, "LATITUD": 18.158843, "LONGITUD": -89.188613 }, "geometry": { "type": "Point", "coordinates": [ -89.188613, 18.158843 ] } },
{ "type": "Feature", "properties": { "fid": 18, "NO": 18, "ENTIDAD": "CAMPECHE", "MUNICIPIO": "CALAKMUL", "PUEBLO\nINDIGENA O\nAFROMEXICANO": "CH'OL", "LOCALIDAD": "EUGENIO ECHEVERRIA CASTELLOT (EL CARRIZAL) ", "CLAVE LOC": 40100100, "TIPO DE\nASENTAMIENTO": "COMUNIDAD INDIGENA", "NOMBRE": "EUGENIO ECHEVERRIA CASTELLOT II (EL\nCARRIZAL)", "MONTO\nASIGNADO\n(PESOS)": 267331, "LATITUD": 18.399322, "LONGITUD": -89.441018 }, "geometry": { "type": "Point", "coordinates": [ -89.441018, 18.399322 ] } },
{ "type": "Feature", "properties": { "fid": 19, "NO": 19, "ENTIDAD": "CAMPECHE", "MUNICIPIO": "CALAKMUL", "PUEBLO\nINDIGENA O\nAFROMEXICANO": "CH'OL", "LOCALIDAD": "FELIPE ANGELES ", "CLAVE LOC": 40100082, "TIPO DE\nASENTAMIENTO": "COMUNIDAD INDIGENA", "NOMBRE": "FELIPE ÁNGELES", "MONTO\nASIGNADO\n(PESOS)": 362718, "LATITUD": 18.170761, "LONGITUD": -89.269989 }, "geometry": { "type": "Point", "coordinates": [ -89.269989, 18.170761 ] } },
{ "type": "Feature", "properties": { "fid": 20, "NO": 20, "ENTIDAD": "CAMPECHE", "MUNICIPIO": "CALAKMUL", "PUEBLO\nINDIGENA O\nAFROMEXICANO": "CH'OL", "LOCALIDAD": "GUILLERMO PRIETO ", "CLAVE LOC": 40100094, "TIPO DE\nASENTAMIENTO": "COMUNIDAD INDIGENA", "NOMBRE": "GUILLERMO PRIETO", "MONTO\nASIGNADO\n(PESOS)": 318258, "LATITUD": 18.178042, "LONGITUD": -89.343207 }, "geometry": { "type": "Point", "coordinates": [ -89.343207, 18.178042 ] } },
{ "type": "Feature", "properties": { "fid": 21, "NO": 21, "ENTIDAD": "CAMPECHE", "MUNICIPIO": "CALAKMUL", "PUEBLO\nINDIGENA O\nAFROMEXICANO": "MAYA", "LOCALIDAD": "GUSTAVO DIAZ ORDAZ (SAN ANTONIO SODA)", "CLAVE LOC": 40100095, "TIPO DE\nASENTAMIENTO": "COMUNIDAD INDIGENA", "NOMBRE": "GUSTAVO DÍAZ ORDAZ (SAN ANTONIO SODA)", "MONTO\nASIGNADO\n(PESOS)": 533284, "LATITUD": 18.418467, "LONGITUD": -89.137372 }, "geometry": { "type": "Point", "coordinates": [ -89.137372, 18.418467 ] } },
{ "type": "Feature", "properties": { "fid": 22, "NO": 22, "ENTIDAD": "CAMPECHE", "MUNICIPIO": "CALAKMUL", "PUEBLO\nINDIGENA O\nAFROMEXICANO": "MAYA", "LOCALIDAD": "HERIBERTO JARA CORONA ", "CLAVE LOC": 40100096, "TIPO DE\nASENTAMIENTO": "COMUNIDAD INDIGENA", "NOMBRE": "HERIBERTO JARA CORONA", "MONTO\nASIGNADO\n(PESOS)": 372419, "LATITUD": 18.510822, "LONGITUD": -89.442125 }, "geometry": { "type": "Point", "coordinates": [ -89.442125, 18.510822 ] } },
{ "type": "Feature", "properties": { "fid": 23, "NO": 23, "ENTIDAD": "CAMPECHE", "MUNICIPIO": "CALAKMUL", "PUEBLO\nINDIGENA O\nAFROMEXICANO": "CH'OL", "LOCALIDAD": "INGENIERO RICARDO PAYRO JENE (POLO NORTE) ", "CLAVE LOC": 40100101, "TIPO DE\nASENTAMIENTO": "COMUNIDAD INDIGENA", "NOMBRE": "INGENIERO RICARDO PAYRÓ JENE (POLO NORTE)", "MONTO\nASIGNADO\n(PESOS)": 646456, "LATITUD": 18.317883, "LONGITUD": -89.446601 }, "geometry": { "type": "Point", "coordinates": [ -89.446601, 18.317883 ] } },
{ "type": "Feature", "properties": { "fid": 24, "NO": 24, "ENTIDAD": "CAMPECHE", "MUNICIPIO": "CALAKMUL", "PUEBLO\nINDIGENA O\nAFROMEXICANO": "CH'OL", "LOCALIDAD": "JOSE MARIA MORELOS Y PAVON (CIVALITO)", "CLAVE LOC": 40100124, "TIPO DE\nASENTAMIENTO": "COMUNIDAD INDIGENA", "NOMBRE": "JOSÉ MARÍA MORELOS Y PAVÓN (EL CIVALITO)", "MONTO\nASIGNADO\n(PESOS)": 442747, "LATITUD": 17.88565, "LONGITUD": -89.285727 }, "geometry": { "type": "Point", "coordinates": [ -89.285727, 17.88565 ] } },
{ "type": "Feature", "properties": { "fid": 25, "NO": 25, "ENTIDAD": "CAMPECHE", "MUNICIPIO": "CALAKMUL", "PUEBLO\nINDIGENA O\nAFROMEXICANO": "PLURICULTURAL", "LOCALIDAD": "LA LUCHA ", "CLAVE LOC": 40100139, "TIPO DE\nASENTAMIENTO": "COMUNIDAD PLURICULTURAL", "NOMBRE": "LA LUCHA 1", "MONTO\nASIGNADO\n(PESOS)": 339275, "LATITUD": 18.423088, "LONGITUD": -89.436759 }, "geometry": { "type": "Point", "coordinates": [ -89.436759, 18.423088 ] } },
{ "type": "Feature", "properties": { "fid": 26, "NO": 26, "ENTIDAD": "CAMPECHE", "MUNICIPIO": "CALAKMUL", "PUEBLO\nINDIGENA O\nAFROMEXICANO": "CH'OL", "LOCALIDAD": "LA VIRGENCITA DE LA CANDELARIA ", "CLAVE LOC": 40100266, "TIPO DE\nASENTAMIENTO": "COMUNIDAD INDIGENA", "NOMBRE": "LA VIRGENCITA DE LA CANDELARIA", "MONTO\nASIGNADO\n(PESOS)": 419304, "LATITUD": 18.240844, "LONGITUD": -89.312128 }, "geometry": { "type": "Point", "coordinates": [ -89.312128, 18.240844 ] } },
{ "type": "Feature", "properties": { "fid": 27, "NO": 27, "ENTIDAD": "CAMPECHE", "MUNICIPIO": "CALAKMUL", "PUEBLO\nINDIGENA O\nAFROMEXICANO": "CH'OL", "LOCALIDAD": "LAZARO CARDENAS NUMERO 2 (OJO DE AGUA)", "CLAVE LOC": 40100131, "TIPO DE\nASENTAMIENTO": "COMUNIDAD INDIGENA", "NOMBRE": "LÁZARO CÁRDENAS NÚMERO 2 (OJO DE AGUA)", "MONTO\nASIGNADO\n(PESOS)": 383736, "LATITUD": 17.959603, "LONGITUD": -89.226688 }, "geometry": { "type": "Point", "coordinates": [ -89.226688, 17.959603 ] } },
{ "type": "Feature", "properties": { "fid": 28, "NO": 28, "ENTIDAD": "CAMPECHE", "MUNICIPIO": "CALAKMUL", "PUEBLO\nINDIGENA O\nAFROMEXICANO": "CH'OL", "LOCALIDAD": "LEY DE FOMENTO AGROPECUARIO (LA MISTERIOSA)", "CLAVE LOC": 40100132, "TIPO DE\nASENTAMIENTO": "COMUNIDAD INDIGENA", "NOMBRE": "LEY DE FOMENTO AGROPECUARIO", "MONTO\nASIGNADO\n(PESOS)": 448405, "LATITUD": 18.064054, "LONGITUD": -89.419175 }, "geometry": { "type": "Point", "coordinates": [ -89.419175, 18.064054 ] } },
{ "type": "Feature", "properties": { "fid": 29, "NO": 29, "ENTIDAD": "CAMPECHE", "MUNICIPIO": "CALAKMUL", "PUEBLO\nINDIGENA O\nAFROMEXICANO": "CH'OL", "LOCALIDAD": "LOS ALACRANES ", "CLAVE LOC": 40100007, "TIPO DE\nASENTAMIENTO": "COMUNIDAD INDIGENA", "NOMBRE": "LOS ALACRANES", "MONTO\nASIGNADO\n(PESOS)": 220445, "LATITUD": 17.98123, "LONGITUD": -89.215735 }, "geometry": { "type": "Point", "coordinates": [ -89.215735, 17.98123 ] } },
{ "type": "Feature", "properties": { "fid": 30, "NO": 30, "ENTIDAD": "CAMPECHE", "MUNICIPIO": "CALAKMUL", "PUEBLO\nINDIGENA O\nAFROMEXICANO": "CH'OL", "LOCALIDAD": "LOS ANGELES", "CLAVE LOC": 40100013, "TIPO DE\nASENTAMIENTO": "COMUNIDAD INDIGENA", "NOMBRE": "LOS ANGELES", "MONTO\nASIGNADO\n(PESOS)": 557535, "LATITUD": 18.214491, "LONGITUD": -89.179575 }, "geometry": { "type": "Point", "coordinates": [ -89.179575, 18.214491 ] } },
{ "type": "Feature", "properties": { "fid": 31, "NO": 31, "ENTIDAD": "CAMPECHE", "MUNICIPIO": "CALAKMUL", "PUEBLO\nINDIGENA O\nAFROMEXICANO": "CH'OL", "LOCALIDAD": "LOS TAMBORES DE EMILIANO ZAPATA ", "CLAVE LOC": 40100236, "TIPO DE\nASENTAMIENTO": "COMUNIDAD INDIGENA", "NOMBRE": "LOS TAMBORES DE EMILIANO ZAPATA", "MONTO\nASIGNADO\n(PESOS)": 407496, "LATITUD": 17.994625, "LONGITUD": -89.312848 }, "geometry": { "type": "Point", "coordinates": [ -89.312848, 17.994625 ] } },
{ "type": "Feature", "properties": { "fid": 32, "NO": 32, "ENTIDAD": "CAMPECHE", "MUNICIPIO": "CALAKMUL", "PUEBLO\nINDIGENA O\nAFROMEXICANO": "CH'OL", "LOCALIDAD": "MANUEL CASTILLA BRITO", "CLAVE LOC": 40100142, "TIPO DE\nASENTAMIENTO": "COMUNIDAD INDIGENA", "NOMBRE": "MANUEL CASTILLA BRITO", "MONTO\nASIGNADO\n(PESOS)": 507416, "LATITUD": 18.359371, "LONGITUD": -89.440335 }, "geometry": { "type": "Point", "coordinates": [ -89.440335, 18.359371 ] } },
{ "type": "Feature", "properties": { "fid": 33, "NO": 33, "ENTIDAD": "CAMPECHE", "MUNICIPIO": "CALAKMUL", "PUEBLO\nINDIGENA O\nAFROMEXICANO": "CH'OL", "LOCALIDAD": "MANUEL CRESCENCIO REJON", "CLAVE LOC": 40100143, "TIPO DE\nASENTAMIENTO": "COMUNIDAD INDIGENA", "NOMBRE": "MANUEL CRESCENCIO REJÓN", "MONTO\nASIGNADO\n(PESOS)": 346551, "LATITUD": 17.923267, "LONGITUD": -89.25631 }, "geometry": { "type": "Point", "coordinates": [ -89.25631, 17.923267 ] } },
{ "type": "Feature", "properties": { "fid": 34, "NO": 34, "ENTIDAD": "CAMPECHE", "MUNICIPIO": "CALAKMUL", "PUEBLO\nINDIGENA O\nAFROMEXICANO": "CH'OL", "LOCALIDAD": "NIÑOS HEROES ", "CLAVE LOC": 40100154, "TIPO DE\nASENTAMIENTO": "LOCALIDAD CON POBLACION\nINDIGENA", "NOMBRE": "NIÑOS HEROES", "MONTO\nASIGNADO\n(PESOS)": 294815, "LATITUD": 18.152975, "LONGITUD": -89.460306 }, "geometry": { "type": "Point", "coordinates": [ -89.460306, 18.152975 ] } },
{ "type": "Feature", "properties": { "fid": 35, "NO": 35, "ENTIDAD": "CAMPECHE", "MUNICIPIO": "CALAKMUL", "PUEBLO\nINDIGENA O\nAFROMEXICANO": "CH'OL", "LOCALIDAD": "NUEVA VIDA ", "CLAVE LOC": 40100158, "TIPO DE\nASENTAMIENTO": "COMUNIDAD INDIGENA", "NOMBRE": "NUEVA VIDA", "MONTO\nASIGNADO\n(PESOS)": 353018, "LATITUD": 18.803879, "LONGITUD": -89.369609 }, "geometry": { "type": "Point", "coordinates": [ -89.369609, 18.803879 ] } },
{ "type": "Feature", "properties": { "fid": 36, "NO": 36, "ENTIDAD": "CAMPECHE", "MUNICIPIO": "CALAKMUL", "PUEBLO\nINDIGENA O\nAFROMEXICANO": "CH'OL", "LOCALIDAD": "NUEVO CAMPANARIO", "CLAVE LOC": 40100160, "TIPO DE\nASENTAMIENTO": "COMUNIDAD INDIGENA", "NOMBRE": "NUEVO CAMPANARIO", "MONTO\nASIGNADO\n(PESOS)": 399095, "LATITUD": 18.45076, "LONGITUD": -89.432244 }, "geometry": { "type": "Point", "coordinates": [ -89.432244, 18.45076 ] } },
{ "type": "Feature", "properties": { "fid": 37, "NO": 37, "ENTIDAD": "CAMPECHE", "MUNICIPIO": "CALAKMUL", "PUEBLO\nINDIGENA O\nAFROMEXICANO": "MAYA", "LOCALIDAD": "NUEVO CONHUAS", "CLAVE LOC": 40100161, "TIPO DE\nASENTAMIENTO": "COMUNIDAD INDIGENA", "NOMBRE": "CONHUÁS", "MONTO\nASIGNADO\n(PESOS)": 696574, "LATITUD": 18.539792, "LONGITUD": -89.921247 }, "geometry": { "type": "Point", "coordinates": [ -89.921247, 18.539792 ] } },
{ "type": "Feature", "properties": { "fid": 38, "NO": 38, "ENTIDAD": "CAMPECHE", "MUNICIPIO": "CALAKMUL", "PUEBLO\nINDIGENA O\nAFROMEXICANO": "TSOTSIL", "LOCALIDAD": "NUEVO PARAISO ", "CLAVE LOC": 40100164, "TIPO DE\nASENTAMIENTO": "COMUNIDAD INDIGENA", "NOMBRE": "NUEVO PARAISO", "MONTO\nASIGNADO\n(PESOS)": 264906, "LATITUD": 18.113328, "LONGITUD": -89.2406 }, "geometry": { "type": "Point", "coordinates": [ -89.2406, 18.113328 ] } },
{ "type": "Feature", "properties": { "fid": 39, "NO": 39, "ENTIDAD": "CAMPECHE", "MUNICIPIO": "CALAKMUL", "PUEBLO\nINDIGENA O\nAFROMEXICANO": "OTOMÍ", "LOCALIDAD": "NUEVO PROGRESO ", "CLAVE LOC": 40100165, "TIPO DE\nASENTAMIENTO": "COMUNIDAD INDIGENA", "NOMBRE": "NUEVO PROGRESO", "MONTO\nASIGNADO\n(PESOS)": 138800, "LATITUD": 18.270307, "LONGITUD": -89.230082 }, "geometry": { "type": "Point", "coordinates": [ -89.230082, 18.270307 ] } },
{ "type": "Feature", "properties": { "fid": 40, "NO": 40, "ENTIDAD": "CAMPECHE", "MUNICIPIO": "CALAKMUL", "PUEBLO\nINDIGENA O\nAFROMEXICANO": "CH'OL", "LOCALIDAD": "NUEVO SAN JOSE", "CLAVE LOC": 40100166, "TIPO DE\nASENTAMIENTO": "COMUNIDAD INDIGENA", "NOMBRE": "NUEVO SAN JOSÉ", "MONTO\nASIGNADO\n(PESOS)": 330383, "LATITUD": 18.059338, "LONGITUD": -89.402325 }, "geometry": { "type": "Point", "coordinates": [ -89.402325, 18.059338 ] } },
{ "type": "Feature", "properties": { "fid": 41, "NO": 41, "ENTIDAD": "CAMPECHE", "MUNICIPIO": "CALAKMUL", "PUEBLO\nINDIGENA O\nAFROMEXICANO": "CH'OL", "LOCALIDAD": "ONCE DE MAYO ", "CLAVE LOC": 40100170, "TIPO DE\nASENTAMIENTO": "COMUNIDAD INDIGENA", "NOMBRE": "11 DE MAYO", "MONTO\nASIGNADO\n(PESOS)": 374035, "LATITUD": 18.0913, "LONGITUD": -89.459604 }, "geometry": { "type": "Point", "coordinates": [ -89.459604, 18.0913 ] } },
{ "type": "Feature", "properties": { "fid": 42, "NO": 42, "ENTIDAD": "CAMPECHE", "MUNICIPIO": "CALAKMUL", "PUEBLO\nINDIGENA O\nAFROMEXICANO": "CH'OL", "LOCALIDAD": "PABLO GARCIA ", "CLAVE LOC": 40100171, "TIPO DE\nASENTAMIENTO": "COMUNIDAD INDIGENA", "NOMBRE": "PABLO GARCÍA", "MONTO\nASIGNADO\n(PESOS)": 757202, "LATITUD": 18.620795, "LONGITUD": -90.139759 }, "geometry": { "type": "Point", "coordinates": [ -90.139759, 18.620795 ] } },
{ "type": "Feature", "properties": { "fid": 43, "NO": 43, "ENTIDAD": "CAMPECHE", "MUNICIPIO": "CALAKMUL", "PUEBLO\nINDIGENA O\nAFROMEXICANO": "TSOTSIL", "LOCALIDAD": "PIONEROS DEL RIO XNOHA ", "CLAVE LOC": 40100176, "TIPO DE\nASENTAMIENTO": "COMUNIDAD INDIGENA", "NOMBRE": "PIONEROS DEL RÍO XNOHÁ", "MONTO\nASIGNADO\n(PESOS)": 348168, "LATITUD": 17.888387, "LONGITUD": -89.172701 }, "geometry": { "type": "Point", "coordinates": [ -89.172701, 17.888387 ] } },
{ "type": "Feature", "properties": { "fid": 44, "NO": 44, "ENTIDAD": "CAMPECHE", "MUNICIPIO": "CALAKMUL", "PUEBLO\nINDIGENA O\nAFROMEXICANO": "CH'OL", "LOCALIDAD": "QUICHE DE LAS PAILAS", "CLAVE LOC": 40100192, "TIPO DE\nASENTAMIENTO": "COMUNIDAD INDIGENA", "NOMBRE": "QUICHÉ DE LAS PAILAS", "MONTO\nASIGNADO\n(PESOS)": 379694, "LATITUD": 18.073664, "LONGITUD": -89.339532 }, "geometry": { "type": "Point", "coordinates": [ -89.339532, 18.073664 ] } },
{ "type": "Feature", "properties": { "fid": 45, "NO": 45, "ENTIDAD": "CAMPECHE", "MUNICIPIO": "CALAKMUL", "PUEBLO\nINDIGENA O\nAFROMEXICANO": "CH'OL", "LOCALIDAD": "RICARDO FLORES MAGON (LAGUNA COOXLI)", "CLAVE LOC": 40100195, "TIPO DE\nASENTAMIENTO": "COMUNIDAD INDIGENA", "NOMBRE": "RICARDO FLORES MAGÓN (LAGUNA COOXLÍ).", "MONTO\nASIGNADO\n(PESOS)": 464027, "LATITUD": 18.822054, "LONGITUD": -89.164196 }, "geometry": { "type": "Point", "coordinates": [ -89.164196, 18.822054 ] } },
{ "type": "Feature", "properties": { "fid": 46, "NO": 46, "ENTIDAD": "CAMPECHE", "MUNICIPIO": "CALAKMUL", "PUEBLO\nINDIGENA O\nAFROMEXICANO": "CH'OL", "LOCALIDAD": "SAN MIGUEL ", "CLAVE LOC": 40100217, "TIPO DE\nASENTAMIENTO": "COMUNIDAD INDIGENA", "NOMBRE": "SAN MIGUEL", "MONTO\nASIGNADO\n(PESOS)": 219637, "LATITUD": 18.094182, "LONGITUD": -89.434062 }, "geometry": { "type": "Point", "coordinates": [ -89.434062, 18.094182 ] } },
{ "type": "Feature", "properties": { "fid": 47, "NO": 47, "ENTIDAD": "CAMPECHE", "MUNICIPIO": "CALAKMUL", "PUEBLO\nINDIGENA O\nAFROMEXICANO": "MAYA", "LOCALIDAD": "SANTA LUCIA", "CLAVE LOC": 40100225, "TIPO DE\nASENTAMIENTO": "COMUNIDAD INDIGENA", "NOMBRE": "SANTA LUCIA.", "MONTO\nASIGNADO\n(PESOS)": 330383, "LATITUD": 18.636888, "LONGITUD": -90.178955 }, "geometry": { "type": "Point", "coordinates": [ -90.178955, 18.636888 ] } },
{ "type": "Feature", "properties": { "fid": 48, "NO": 48, "ENTIDAD": "CAMPECHE", "MUNICIPIO": "CALAKMUL", "PUEBLO\nINDIGENA O\nAFROMEXICANO": "CH'OL", "LOCALIDAD": "SANTO DOMINGO (EL SACRIFICIO)", "CLAVE LOC": 40100033, "TIPO DE\nASENTAMIENTO": "COMUNIDAD INDIGENA", "NOMBRE": "SANTO DOMINGO (EL SACRIFICIO).", "MONTO\nASIGNADO\n(PESOS)": 893664, "LATITUD": 17.998609, "LONGITUD": -89.376566 }, "geometry": { "type": "Point", "coordinates": [ -89.376566, 17.998609 ] } },
{ "type": "Feature", "properties": { "fid": 49, "NO": 49, "ENTIDAD": "CAMPECHE", "MUNICIPIO": "CALAKMUL", "PUEBLO\nINDIGENA O\nAFROMEXICANO": "MAYA", "LOCALIDAD": "TOMAS AZNAR BARBACHANO (LA MOZA)", "CLAVE LOC": 40100241, "TIPO DE\nASENTAMIENTO": "COMUNIDAD INDIGENA", "NOMBRE": "TOMÁS AZNAR BARBACHANO (LA MOZA)", "MONTO\nASIGNADO\n(PESOS)": 241463, "LATITUD": 18.481355, "LONGITUD": -89.195922 }, "geometry": { "type": "Point", "coordinates": [ -89.195922, 18.481355 ] } },
{ "type": "Feature", "properties": { "fid": 50, "NO": 50, "ENTIDAD": "CAMPECHE", "MUNICIPIO": "CALAKMUL", "PUEBLO\nINDIGENA O\nAFROMEXICANO": "CH'OL", "LOCALIDAD": "UNIDAD Y TRABAJO ", "CLAVE LOC": 40100256, "TIPO DE\nASENTAMIENTO": "COMUNIDAD INDIGENA", "NOMBRE": "UNIDAD Y TRABAJO", "MONTO\nASIGNADO\n(PESOS)": 201044, "LATITUD": 18.117603, "LONGITUD": -89.399971 }, "geometry": { "type": "Point", "coordinates": [ -89.399971, 18.117603 ] } },
{ "type": "Feature", "properties": { "fid": 51, "NO": 51, "ENTIDAD": "CAMPECHE", "MUNICIPIO": "CALAKMUL", "PUEBLO\nINDIGENA O\nAFROMEXICANO": "TSELTAL", "LOCALIDAD": "UNION 20 DE JUNIO (MANCOLONA) ", "CLAVE LOC": 40100257, "TIPO DE\nASENTAMIENTO": "COMUNIDAD INDIGENA", "NOMBRE": "UNIÓN 20 DE JUNIO (MANCOLONA)", "MONTO\nASIGNADO\n(PESOS)": 517117, "LATITUD": 18.810714, "LONGITUD": -89.29165 }, "geometry": { "type": "Point", "coordinates": [ -89.29165, 18.810714 ] } },
{ "type": "Feature", "properties": { "fid": 52, "NO": 52, "ENTIDAD": "CAMPECHE", "MUNICIPIO": "CALAKMUL", "PUEBLO\nINDIGENA O\nAFROMEXICANO": "MAYA", "LOCALIDAD": "VEINTE DE NOVIEMBRE ", "CLAVE LOC": 40100262, "TIPO DE\nASENTAMIENTO": "COMUNIDAD INDIGENA", "NOMBRE": "20 DE NOVIEMBRE", "MONTO\nASIGNADO\n(PESOS)": 423346, "LATITUD": 18.45199, "LONGITUD": -89.306919 }, "geometry": { "type": "Point", "coordinates": [ -89.306919, 18.45199 ] } },
{ "type": "Feature", "properties": { "fid": 53, "NO": 53, "ENTIDAD": "CAMPECHE", "MUNICIPIO": "CALAKMUL", "PUEBLO\nINDIGENA O\nAFROMEXICANO": "CH'OL", "LOCALIDAD": "XBONIL ", "CLAVE LOC": 40100268, "TIPO DE\nASENTAMIENTO": "COMUNIDAD INDIGENA", "NOMBRE": "XBONIL", "MONTO\nASIGNADO\n(PESOS)": 559152, "LATITUD": 18.635697, "LONGITUD": -90.166201 }, "geometry": { "type": "Point", "coordinates": [ -90.166201, 18.635697 ] } },
{ "type": "Feature", "properties": { "fid": 54, "NO": 54, "ENTIDAD": "CAMPECHE", "MUNICIPIO": "CALAKMUL", "PUEBLO\nINDIGENA O\nAFROMEXICANO": "MAYA", "LOCALIDAD": "ZOH-LAGUNA (ALVARO OBREGON) ", "CLAVE LOC": 40100272, "TIPO DE\nASENTAMIENTO": "COMUNIDAD INDIGENA", "NOMBRE": "ZOH LAGUNA (ÁLVARO OBREGÓN)", "MONTO\nASIGNADO\n(PESOS)": 1009413, "LATITUD": 18.593856, "LONGITUD": -89.419116 }, "geometry": { "type": "Point", "coordinates": [ -89.419116, 18.593856 ] } },
{ "type": "Feature", "properties": { "fid": 55, "NO": 55, "ENTIDAD": "CAMPECHE", "MUNICIPIO": "CALKINI", "PUEBLO\nINDIGENA O\nAFROMEXICANO": "MAYA", "LOCALIDAD": "ANEXO SAN MATEO ", "CLAVE LOC": 40010150, "TIPO DE\nASENTAMIENTO": "LOCALIDAD CON POBLACION\nINDIGENA", "NOMBRE": "ANEXO SAN MATEO", "MONTO\nASIGNADO\n(PESOS)": 163783, "LATITUD": 20.37081, "LONGITUD": -90.050583 }, "geometry": { "type": "Point", "coordinates": [ -90.050583, 20.37081 ] } },
{ "type": "Feature", "properties": { "fid": 56, "NO": 56, "ENTIDAD": "CAMPECHE", "MUNICIPIO": "CALKINI", "PUEBLO\nINDIGENA O\nAFROMEXICANO": "MAYA", "LOCALIDAD": "CONCEPCION ", "CLAVE LOC": 40010005, "TIPO DE\nASENTAMIENTO": "COMUNIDAD INDIGENA", "NOMBRE": "CONCEPCIÓN", "MONTO\nASIGNADO\n(PESOS)": 406370, "LATITUD": 20.316658, "LONGITUD": -90.180664 }, "geometry": { "type": "Point", "coordinates": [ -90.180664, 20.316658 ] } },
{ "type": "Feature", "properties": { "fid": 57, "NO": 57, "ENTIDAD": "CAMPECHE", "MUNICIPIO": "CALKINI", "PUEBLO\nINDIGENA O\nAFROMEXICANO": "MAYA", "LOCALIDAD": "ISLA ARENA", "CLAVE LOC": 40010002, "TIPO DE\nASENTAMIENTO": "COMUNIDAD INDIGENA", "NOMBRE": "ISLA ARENA", "MONTO\nASIGNADO\n(PESOS)": 867140, "LATITUD": 20.690499, "LONGITUD": -90.452459 }, "geometry": { "type": "Point", "coordinates": [ -90.452459, 20.690499 ] } },
{ "type": "Feature", "properties": { "fid": 58, "NO": 58, "ENTIDAD": "CAMPECHE", "MUNICIPIO": "CALKINI", "PUEBLO\nINDIGENA O\nAFROMEXICANO": "MAYA", "LOCALIDAD": "PUCNACHEN ", "CLAVE LOC": 40010009, "TIPO DE\nASENTAMIENTO": "COMUNIDAD INDIGENA", "NOMBRE": "PUCNACHÉN", "MONTO\nASIGNADO\n(PESOS)": 918067, "LATITUD": 20.365077, "LONGITUD": -90.219307 }, "geometry": { "type": "Point", "coordinates": [ -90.219307, 20.365077 ] } },
{ "type": "Feature", "properties": { "fid": 59, "NO": 59, "ENTIDAD": "CAMPECHE", "MUNICIPIO": "CALKINI", "PUEBLO\nINDIGENA O\nAFROMEXICANO": "MAYA", "LOCALIDAD": "SAN AGUSTIN CHUNHUAS", "CLAVE LOC": 40010006, "TIPO DE\nASENTAMIENTO": "COMUNIDAD INDIGENA", "NOMBRE": "SAN AGUSTÍN CHUNHUÁS", "MONTO\nASIGNADO\n(PESOS)": 536517, "LATITUD": 20.266482, "LONGITUD": -90.17844 }, "geometry": { "type": "Point", "coordinates": [ -90.17844, 20.266482 ] } },
{ "type": "Feature", "properties": { "fid": 60, "NO": 60, "ENTIDAD": "CAMPECHE", "MUNICIPIO": "CALKINI", "PUEBLO\nINDIGENA O\nAFROMEXICANO": "MAYA", "LOCALIDAD": "SAN ANTONIO SAHCABCHEN", "CLAVE LOC": 40010010, "TIPO DE\nASENTAMIENTO": "COMUNIDAD INDIGENA", "NOMBRE": "SAN ANTONIO SAHCABCHÉN", "MONTO\nASIGNADO\n(PESOS)": 1927720, "LATITUD": 20.306577, "LONGITUD": -90.137536 }, "geometry": { "type": "Point", "coordinates": [ -90.137536, 20.306577 ] } },
{ "type": "Feature", "properties": { "fid": 61, "NO": 61, "ENTIDAD": "CAMPECHE", "MUNICIPIO": "CALKINI", "PUEBLO\nINDIGENA O\nAFROMEXICANO": "MAYA", "LOCALIDAD": "SAN NICOLAS ", "CLAVE LOC": 40010011, "TIPO DE\nASENTAMIENTO": "COMUNIDAD INDIGENA", "NOMBRE": "SAN NICOLÁS", "MONTO\nASIGNADO\n(PESOS)": 410412, "LATITUD": 20.437919, "LONGITUD": -90.235697 }, "geometry": { "type": "Point", "coordinates": [ -90.235697, 20.437919 ] } },
{ "type": "Feature", "properties": { "fid": 62, "NO": 62, "ENTIDAD": "CAMPECHE", "MUNICIPIO": "CALKINI", "PUEBLO\nINDIGENA O\nAFROMEXICANO": "MAYA", "LOCALIDAD": "SANTA CRUZ EX-HACIENDA ", "CLAVE LOC": 40010012, "TIPO DE\nASENTAMIENTO": "COMUNIDAD INDIGENA", "NOMBRE": "SANTA CRUZ EX HACIENDA", "MONTO\nASIGNADO\n(PESOS)": 1233331, "LATITUD": 20.397871, "LONGITUD": -90.240519 }, "geometry": { "type": "Point", "coordinates": [ -90.240519, 20.397871 ] } },
{ "type": "Feature", "properties": { "fid": 63, "NO": 63, "ENTIDAD": "CAMPECHE", "MUNICIPIO": "CALKINI", "PUEBLO\nINDIGENA O\nAFROMEXICANO": "MAYA", "LOCALIDAD": "SANTA CRUZ PUEBLO ", "CLAVE LOC": 40010013, "TIPO DE\nASENTAMIENTO": "COMUNIDAD INDIGENA", "NOMBRE": "SANTA CRUZ PUEBLO", "MONTO\nASIGNADO\n(PESOS)": 1932570, "LATITUD": 20.334408, "LONGITUD": -90.104049 }, "geometry": { "type": "Point", "coordinates": [ -90.104049, 20.334408 ] } },
{ "type": "Feature", "properties": { "fid": 64, "NO": 64, "ENTIDAD": "CAMPECHE", "MUNICIPIO": "CALKINI", "PUEBLO\nINDIGENA O\nAFROMEXICANO": "MAYA", "LOCALIDAD": "SANTA MARIA ", "CLAVE LOC": 40010016, "TIPO DE\nASENTAMIENTO": "COMUNIDAD INDIGENA", "NOMBRE": "SANTA MARÍA", "MONTO\nASIGNADO\n(PESOS)": 295624, "LATITUD": 20.372651, "LONGITUD": -90.245369 }, "geometry": { "type": "Point", "coordinates": [ -90.245369, 20.372651 ] } },
{ "type": "Feature", "properties": { "fid": 65, "NO": 65, "ENTIDAD": "CAMPECHE", "MUNICIPIO": "CALKINI", "PUEBLO\nINDIGENA O\nAFROMEXICANO": "MAYA", "LOCALIDAD": "TANKUCHE ", "CLAVE LOC": 40010014, "TIPO DE\nASENTAMIENTO": "COMUNIDAD INDIGENA", "NOMBRE": "TANKUCHÉ", "MONTO\nASIGNADO\n(PESOS)": 1077316, "LATITUD": 20.507892, "LONGITUD": -90.242785 }, "geometry": { "type": "Point", "coordinates": [ -90.242785, 20.507892 ] } },
{ "type": "Feature", "properties": { "fid": 66, "NO": 66, "ENTIDAD": "CAMPECHE", "MUNICIPIO": "CALKINI", "PUEBLO\nINDIGENA O\nAFROMEXICANO": "MAYA", "LOCALIDAD": "TEPAKAN", "CLAVE LOC": 40010015, "TIPO DE\nASENTAMIENTO": "COMUNIDAD INDIGENA", "NOMBRE": "TEPAKÁN", "MONTO\nASIGNADO\n(PESOS)": 1857392, "LATITUD": 20.397476, "LONGITUD": -90.040836 }, "geometry": { "type": "Point", "coordinates": [ -90.040836, 20.397476 ] } },
{ "type": "Feature", "properties": { "fid": 67, "NO": 67, "ENTIDAD": "CAMPECHE", "MUNICIPIO": "CALKINI", "PUEBLO\nINDIGENA O\nAFROMEXICANO": "MAYA", "LOCALIDAD": "XKAKOCH ", "CLAVE LOC": 40010232, "TIPO DE\nASENTAMIENTO": "COMUNIDAD INDIGENA", "NOMBRE": "XKAKOCH", "MONTO\nASIGNADO\n(PESOS)": 328767, "LATITUD": 20.235612, "LONGITUD": -90.168868 }, "geometry": { "type": "Point", "coordinates": [ -90.168868, 20.235612 ] } },
{ "type": "Feature", "properties": { "fid": 68, "NO": 68, "ENTIDAD": "CAMPECHE", "MUNICIPIO": "CAMPECHE", "PUEBLO\nINDIGENA O\nAFROMEXICANO": "CH'OL", "LOCALIDAD": "ADOLFO RUIZ CORTINEZ", "CLAVE LOC": 40020316, "TIPO DE\nASENTAMIENTO": "COMUNIDAD INDIGENA", "NOMBRE": "ADOLFO RUIZ CORTÍNEZ.", "MONTO\nASIGNADO\n(PESOS)": 429813, "LATITUD": 19.476341, "LONGITUD": -90.359819 }, "geometry": { "type": "Point", "coordinates": [ -90.359819, 19.476341 ] } },
{ "type": "Feature", "properties": { "fid": 69, "NO": 69, "ENTIDAD": "CAMPECHE", "MUNICIPIO": "CAMPECHE", "PUEBLO\nINDIGENA O\nAFROMEXICANO": "MAYA", "LOCALIDAD": "BETHANIA ", "CLAVE LOC": 40020070, "TIPO DE\nASENTAMIENTO": "COMUNIDAD INDIGENA", "NOMBRE": "BETHANIA", "MONTO\nASIGNADO\n(PESOS)": 1119351, "LATITUD": 19.908939, "LONGITUD": -90.365659 }, "geometry": { "type": "Point", "coordinates": [ -90.365659, 19.908939 ] } },
{ "type": "Feature", "properties": { "fid": 70, "NO": 70, "ENTIDAD": "CAMPECHE", "MUNICIPIO": "CAMPECHE", "PUEBLO\nINDIGENA O\nAFROMEXICANO": "MAYA", "LOCALIDAD": "BOLONCHEN CAHUICH ", "CLAVE LOC": 40020072, "TIPO DE\nASENTAMIENTO": "COMUNIDAD INDIGENA", "NOMBRE": "BOLONCHÉN CAHUICH", "MONTO\nASIGNADO\n(PESOS)": 348168, "LATITUD": 19.442371, "LONGITUD": -90.205503 }, "geometry": { "type": "Point", "coordinates": [ -90.205503, 19.442371 ] } },
{ "type": "Feature", "properties": { "fid": 71, "NO": 71, "ENTIDAD": "CAMPECHE", "MUNICIPIO": "CAMPECHE", "PUEBLO\nINDIGENA O\nAFROMEXICANO": "NAHUA", "LOCALIDAD": "CARLOS CANO CRUZ (LOS TLAXCALTECAS)", "CLAVE LOC": 40020711, "TIPO DE\nASENTAMIENTO": "COMUNIDAD INDIGENA", "NOMBRE": "CARLOS CANO CRUZ", "MONTO\nASIGNADO\n(PESOS)": 267331, "LATITUD": 19.369013, "LONGITUD": -89.886794 }, "geometry": { "type": "Point", "coordinates": [ -89.886794, 19.369013 ] } },
{ "type": "Feature", "properties": { "fid": 72, "NO": 72, "ENTIDAD": "CAMPECHE", "MUNICIPIO": "CAMPECHE", "PUEBLO\nINDIGENA O\nAFROMEXICANO": "MAYA", "LOCALIDAD": "CASTAMAY ", "CLAVE LOC": 40020073, "TIPO DE\nASENTAMIENTO": "COMUNIDAD INDIGENA", "NOMBRE": "CASTAMAY", "MONTO\nASIGNADO\n(PESOS)": 1108034, "LATITUD": 19.837024, "LONGITUD": -90.430432 }, "geometry": { "type": "Point", "coordinates": [ -90.430432, 19.837024 ] } },
{ "type": "Feature", "properties": { "fid": 73, "NO": 73, "ENTIDAD": "CAMPECHE", "MUNICIPIO": "CAMPECHE", "PUEBLO\nINDIGENA O\nAFROMEXICANO": "MAYA", "LOCALIDAD": "CAYAL", "CLAVE LOC": 40020098, "TIPO DE\nASENTAMIENTO": "COMUNIDAD INDIGENA", "NOMBRE": "SAN ANTONIO CAYAL", "MONTO\nASIGNADO\n(PESOS)": 490440, "LATITUD": 19.743239, "LONGITUD": -90.175024 }, "geometry": { "type": "Point", "coordinates": [ -90.175024, 19.743239 ] } },
{ "type": "Feature", "properties": { "fid": 74, "NO": 74, "ENTIDAD": "CAMPECHE", "MUNICIPIO": "CAMPECHE", "PUEBLO\nINDIGENA O\nAFROMEXICANO": "MAYA", "LOCALIDAD": "CHEMBLAS", "CLAVE LOC": 40020075, "TIPO DE\nASENTAMIENTO": "COMUNIDAD INDIGENA", "NOMBRE": "CHEMBLÁS", "MONTO\nASIGNADO\n(PESOS)": 559960, "LATITUD": 19.920161, "LONGITUD": -90.356208 }, "geometry": { "type": "Point", "coordinates": [ -90.356208, 19.920161 ] } },
{ "type": "Feature", "properties": { "fid": 75, "NO": 75, "ENTIDAD": "CAMPECHE", "MUNICIPIO": "CAMPECHE", "PUEBLO\nINDIGENA O\nAFROMEXICANO": "MAYA", "LOCALIDAD": "CRUCERO OXA ", "CLAVE LOC": 40020094, "TIPO DE\nASENTAMIENTO": "COMUNIDAD INDIGENA", "NOMBRE": "CRUCERO DE OXÁ", "MONTO\nASIGNADO\n(PESOS)": 330383, "LATITUD": 19.727863, "LONGITUD": -90.077347 }, "geometry": { "type": "Point", "coordinates": [ -90.077347, 19.727863 ] } },
{ "type": "Feature", "properties": { "fid": 76, "NO": 76, "ENTIDAD": "CAMPECHE", "MUNICIPIO": "CAMPECHE", "PUEBLO\nINDIGENA O\nAFROMEXICANO": "MAYA", "LOCALIDAD": "HAMPOLOL ", "CLAVE LOC": 40020081, "TIPO DE\nASENTAMIENTO": "COMUNIDAD INDIGENA", "NOMBRE": "HAMPOLOL", "MONTO\nASIGNADO\n(PESOS)": 1071657, "LATITUD": 19.926273, "LONGITUD": -90.387861 }, "geometry": { "type": "Point", "coordinates": [ -90.387861, 19.926273 ] } },
{ "type": "Feature", "properties": { "fid": 77, "NO": 77, "ENTIDAD": "CAMPECHE", "MUNICIPIO": "CAMPECHE", "PUEBLO\nINDIGENA O\nAFROMEXICANO": "MAYA", "LOCALIDAD": "HOBOMO ", "CLAVE LOC": 40020082, "TIPO DE\nASENTAMIENTO": "COMUNIDAD INDIGENA", "NOMBRE": "HOBOMÓ", "MONTO\nASIGNADO\n(PESOS)": 362718, "LATITUD": 19.609006, "LONGITUD": -90.490471 }, "geometry": { "type": "Point", "coordinates": [ -90.490471, 19.609006 ] } },
{ "type": "Feature", "properties": { "fid": 78, "NO": 78, "ENTIDAD": "CAMPECHE", "MUNICIPIO": "CAMPECHE", "PUEBLO\nINDIGENA O\nAFROMEXICANO": "MAYA", "LOCALIDAD": "KIKAB ", "CLAVE LOC": 40020312, "TIPO DE\nASENTAMIENTO": "COMUNIDAD INDIGENA", "NOMBRE": "KIKAB.", "MONTO\nASIGNADO\n(PESOS)": 559960, "LATITUD": 19.289, "LONGITUD": -90.208898 }, "geometry": { "type": "Point", "coordinates": [ -90.208898, 19.289 ] } },
{ "type": "Feature", "properties": { "fid": 79, "NO": 79, "ENTIDAD": "CAMPECHE", "MUNICIPIO": "CAMPECHE", "PUEBLO\nINDIGENA O\nAFROMEXICANO": "MAM", "LOCALIDAD": "LA LIBERTAD", "CLAVE LOC": 40020264, "TIPO DE\nASENTAMIENTO": "COMUNIDAD INDIGENA", "NOMBRE": "LA LIBERTAD", "MONTO\nASIGNADO\n(PESOS)": 496099, "LATITUD": 19.466081, "LONGITUD": -90.104098 }, "geometry": { "type": "Point", "coordinates": [ -90.104098, 19.466081 ] } },
{ "type": "Feature", "properties": { "fid": 80, "NO": 80, "ENTIDAD": "CAMPECHE", "MUNICIPIO": "CAMPECHE", "PUEBLO\nINDIGENA O\nAFROMEXICANO": "IXIL", "LOCALIDAD": "LOS LAURELES ", "CLAVE LOC": 40020465, "TIPO DE\nASENTAMIENTO": "COMUNIDAD INDIGENA", "NOMBRE": "LOS LAURELES", "MONTO\nASIGNADO\n(PESOS)": 1386921, "LATITUD": 19.487717, "LONGITUD": -89.994702 }, "geometry": { "type": "Point", "coordinates": [ -89.994702, 19.487717 ] } },
{ "type": "Feature", "properties": { "fid": 81, "NO": 81, "ENTIDAD": "CAMPECHE", "MUNICIPIO": "CAMPECHE", "PUEBLO\nINDIGENA O\nAFROMEXICANO": "MAYA", "LOCALIDAD": "MUCUYCHAKAN", "CLAVE LOC": 40020089, "TIPO DE\nASENTAMIENTO": "COMUNIDAD INDIGENA", "NOMBRE": "MUCUYCHAKÁN", "MONTO\nASIGNADO\n(PESOS)": 243888, "LATITUD": 19.687851, "LONGITUD": -90.462172 }, "geometry": { "type": "Point", "coordinates": [ -90.462172, 19.687851 ] } },
{ "type": "Feature", "properties": { "fid": 82, "NO": 82, "ENTIDAD": "CAMPECHE", "MUNICIPIO": "CAMPECHE", "PUEBLO\nINDIGENA O\nAFROMEXICANO": "MAYA", "LOCALIDAD": "NILCHI", "CLAVE LOC": 40020090, "TIPO DE\nASENTAMIENTO": "COMUNIDAD INDIGENA", "NOMBRE": "NILCHÍ", "MONTO\nASIGNADO\n(PESOS)": 954444, "LATITUD": 19.845529, "LONGITUD": -90.270656 }, "geometry": { "type": "Point", "coordinates": [ -90.270656, 19.845529 ] } },
{ "type": "Feature", "properties": { "fid": 83, "NO": 83, "ENTIDAD": "CAMPECHE", "MUNICIPIO": "CAMPECHE", "PUEBLO\nINDIGENA O\nAFROMEXICANO": "MAYA", "LOCALIDAD": "NOHAKAL ", "CLAVE LOC": 40020091, "TIPO DE\nASENTAMIENTO": "COMUNIDAD INDIGENA", "NOMBRE": "NOHAKAL", "MONTO\nASIGNADO\n(PESOS)": 884924, "LATITUD": 19.654931, "LONGITUD": -90.33641 }, "geometry": { "type": "Point", "coordinates": [ -90.33641, 19.654931 ] } },
{ "type": "Feature", "properties": { "fid": 84, "NO": 84, "ENTIDAD": "CAMPECHE", "MUNICIPIO": "CAMPECHE", "PUEBLO\nINDIGENA O\nAFROMEXICANO": "P'URHÉPECHA\n(TARASCO)", "LOCALIDAD": "NUEVO PENJAMO", "CLAVE LOC": 40020313, "TIPO DE\nASENTAMIENTO": "COMUNIDAD INDIGENA", "NOMBRE": "NUEVO PÉNJAMO", "MONTO\nASIGNADO\n(PESOS)": 200236, "LATITUD": 19.309097, "LONGITUD": -90.21047 }, "geometry": { "type": "Point", "coordinates": [ -90.21047, 19.309097 ] } },
{ "type": "Feature", "properties": { "fid": 85, "NO": 85, "ENTIDAD": "CAMPECHE", "MUNICIPIO": "CAMPECHE", "PUEBLO\nINDIGENA O\nAFROMEXICANO": "MAYA", "LOCALIDAD": "PICH ", "CLAVE LOC": 40020096, "TIPO DE\nASENTAMIENTO": "COMUNIDAD INDIGENA", "NOMBRE": "PICH", "MONTO\nASIGNADO\n(PESOS)": 1745837, "LATITUD": 19.486136, "LONGITUD": -90.118302 }, "geometry": { "type": "Point", "coordinates": [ -90.118302, 19.486136 ] } },
{ "type": "Feature", "properties": { "fid": 86, "NO": 86, "ENTIDAD": "CAMPECHE", "MUNICIPIO": "CAMPECHE", "PUEBLO\nINDIGENA O\nAFROMEXICANO": "MAYA", "LOCALIDAD": "POCYAXUM ", "CLAVE LOC": 40020097, "TIPO DE\nASENTAMIENTO": "COMUNIDAD INDIGENA", "NOMBRE": "POCYAXUM", "MONTO\nASIGNADO\n(PESOS)": 522775, "LATITUD": 19.729957, "LONGITUD": -90.35067 }, "geometry": { "type": "Point", "coordinates": [ -90.35067, 19.729957 ] } },
{ "type": "Feature", "properties": { "fid": 87, "NO": 87, "ENTIDAD": "CAMPECHE", "MUNICIPIO": "CAMPECHE", "PUEBLO\nINDIGENA O\nAFROMEXICANO": "MAYA", "LOCALIDAD": "PUEBLO NUEVO ", "CLAVE LOC": 40020118, "TIPO DE\nASENTAMIENTO": "COMUNIDAD INDIGENA", "NOMBRE": "PUEBLO NUEVO.", "MONTO\nASIGNADO\n(PESOS)": 393436, "LATITUD": 19.747314, "LONGITUD": -90.122742 }, "geometry": { "type": "Point", "coordinates": [ -90.122742, 19.747314 ] } },
{ "type": "Feature", "properties": { "fid": 88, "NO": 88, "ENTIDAD": "CAMPECHE", "MUNICIPIO": "CAMPECHE", "PUEBLO\nINDIGENA O\nAFROMEXICANO": "MAM", "LOCALIDAD": "QUETZAL EDZNA ", "CLAVE LOC": 40020263, "TIPO DE\nASENTAMIENTO": "COMUNIDAD INDIGENA", "NOMBRE": "QUETZAL EDZNÁ", "MONTO\nASIGNADO\n(PESOS)": 918876, "LATITUD": 19.459094, "LONGITUD": -90.105478 }, "geometry": { "type": "Point", "coordinates": [ -90.105478, 19.459094 ] } },
{ "type": "Feature", "properties": { "fid": 89, "NO": 89, "ENTIDAD": "CAMPECHE", "MUNICIPIO": "CAMPECHE", "PUEBLO\nINDIGENA O\nAFROMEXICANO": "MAYA", "LOCALIDAD": "SAN CAMILO (CHENCOLLI) ", "CLAVE LOC": 40020100, "TIPO DE\nASENTAMIENTO": "COMUNIDAD INDIGENA", "NOMBRE": "SAN CAMILO.", "MONTO\nASIGNADO\n(PESOS)": 279456, "LATITUD": 19.7969, "LONGITUD": -90.240627 }, "geometry": { "type": "Point", "coordinates": [ -90.240627, 19.7969 ] } },
{ "type": "Feature", "properties": { "fid": 90, "NO": 90, "ENTIDAD": "CAMPECHE", "MUNICIPIO": "CAMPECHE", "PUEBLO\nINDIGENA O\nAFROMEXICANO": "MAYA", "LOCALIDAD": "SAN FRANCISCO KOBEN ", "CLAVE LOC": 40020101, "TIPO DE\nASENTAMIENTO": "COMUNIDAD INDIGENA", "NOMBRE": "SAN FRANCISCO KOBÉN", "MONTO\nASIGNADO\n(PESOS)": 1129052, "LATITUD": 19.916219, "LONGITUD": -90.41711 }, "geometry": { "type": "Point", "coordinates": [ -90.41711, 19.916219 ] } },
{ "type": "Feature", "properties": { "fid": 91, "NO": 91, "ENTIDAD": "CAMPECHE", "MUNICIPIO": "CAMPECHE", "PUEBLO\nINDIGENA O\nAFROMEXICANO": "MAYA", "LOCALIDAD": "SAN LUCIANO", "CLAVE LOC": 40020281, "TIPO DE\nASENTAMIENTO": "COMUNIDAD INDIGENA", "NOMBRE": "SAN LUCIANO", "MONTO\nASIGNADO\n(PESOS)": 403945, "LATITUD": 19.498504, "LONGITUD": -90.013801 }, "geometry": { "type": "Point", "coordinates": [ -90.013801, 19.498504 ] } },
{ "type": "Feature", "properties": { "fid": 92, "NO": 92, "ENTIDAD": "CAMPECHE", "MUNICIPIO": "CAMPECHE", "PUEBLO\nINDIGENA O\nAFROMEXICANO": "MAYA", "LOCALIDAD": "SAN MIGUEL ALLENDE ", "CLAVE LOC": 40020318, "TIPO DE\nASENTAMIENTO": "COMUNIDAD INDIGENA", "NOMBRE": "SAN MIGUEL ALLENDE", "MONTO\nASIGNADO\n(PESOS)": 296432, "LATITUD": 19.462406, "LONGITUD": -89.995649 }, "geometry": { "type": "Point", "coordinates": [ -89.995649, 19.462406 ] } },
{ "type": "Feature", "properties": { "fid": 93, "NO": 93, "ENTIDAD": "CAMPECHE", "MUNICIPIO": "CAMPECHE", "PUEBLO\nINDIGENA O\nAFROMEXICANO": "MAYA", "LOCALIDAD": "TIKINMUL ", "CLAVE LOC": 40020104, "TIPO DE\nASENTAMIENTO": "COMUNIDAD INDIGENA", "NOMBRE": "TIKINMUL", "MONTO\nASIGNADO\n(PESOS)": 1724819, "LATITUD": 19.768444, "LONGITUD": -90.223565 }, "geometry": { "type": "Point", "coordinates": [ -90.223565, 19.768444 ] } },
{ "type": "Feature", "properties": { "fid": 94, "NO": 94, "ENTIDAD": "CAMPECHE", "MUNICIPIO": "CAMPECHE", "PUEBLO\nINDIGENA O\nAFROMEXICANO": "MAYA", "LOCALIDAD": "TIXMUCUY ", "CLAVE LOC": 40020105, "TIPO DE\nASENTAMIENTO": "COMUNIDAD INDIGENA", "NOMBRE": "TIXMUCUY", "MONTO\nASIGNADO\n(PESOS)": 580169, "LATITUD": 19.582341, "LONGITUD": -90.317133 }, "geometry": { "type": "Point", "coordinates": [ -90.317133, 19.582341 ] } },
{ "type": "Feature", "properties": { "fid": 95, "NO": 95, "ENTIDAD": "CAMPECHE", "MUNICIPIO": "CAMPECHE", "PUEBLO\nINDIGENA O\nAFROMEXICANO": "MAYA", "LOCALIDAD": "UZAHZIL-EDZNA (NOHYAXCHE) ", "CLAVE LOC": 40020092, "TIPO DE\nASENTAMIENTO": "COMUNIDAD INDIGENA", "NOMBRE": "UZAHSIL-EDZNÁ", "MONTO\nASIGNADO\n(PESOS)": 311791, "LATITUD": 19.615401, "LONGITUD": -90.219474 }, "geometry": { "type": "Point", "coordinates": [ -90.219474, 19.615401 ] } },
{ "type": "Feature", "properties": { "fid": 96, "NO": 96, "ENTIDAD": "CAMPECHE", "MUNICIPIO": "CANDELARIA", "PUEBLO\nINDIGENA O\nAFROMEXICANO": "CH'OL", "LOCALIDAD": "BENITO JUAREZ UNO ", "CLAVE LOC": 40110041, "TIPO DE\nASENTAMIENTO": "COMUNIDAD INDIGENA", "NOMBRE": "BENITO JUÁREZ", "MONTO\nASIGNADO\n(PESOS)": 1158961, "LATITUD": 18.2766, "LONGITUD": -91.099635 }, "geometry": { "type": "Point", "coordinates": [ -91.099635, 18.2766 ] } },
{ "type": "Feature", "properties": { "fid": 97, "NO": 97, "ENTIDAD": "CAMPECHE", "MUNICIPIO": "CANDELARIA", "PUEBLO\nINDIGENA O\nAFROMEXICANO": "MAYA", "LOCALIDAD": "EL CHECHENAL ", "CLAVE LOC": 40110097, "TIPO DE\nASENTAMIENTO": "COMUNIDAD INDIGENA", "NOMBRE": "EL CHECHENAL.", "MONTO\nASIGNADO\n(PESOS)": 154989, "LATITUD": 18.429233, "LONGITUD": -90.680083 }, "geometry": { "type": "Point", "coordinates": [ -90.680083, 18.429233 ] } },
{ "type": "Feature", "properties": { "fid": 98, "NO": 98, "ENTIDAD": "CAMPECHE", "MUNICIPIO": "CANDELARIA", "PUEBLO\nINDIGENA O\nAFROMEXICANO": "CH'OL", "LOCALIDAD": "EL DESENGAÑO ", "CLAVE LOC": 40110135, "TIPO DE\nASENTAMIENTO": "COMUNIDAD INDIGENA", "NOMBRE": "EL DESENGAÑO", "MONTO\nASIGNADO\n(PESOS)": 1100759, "LATITUD": 17.866558, "LONGITUD": -90.445812 }, "geometry": { "type": "Point", "coordinates": [ -90.445812, 17.866558 ] } },
{ "type": "Feature", "properties": { "fid": 99, "NO": 99, "ENTIDAD": "CAMPECHE", "MUNICIPIO": "CANDELARIA", "PUEBLO\nINDIGENA O\nAFROMEXICANO": "TSELTAL", "LOCALIDAD": "EL NARANJO ", "CLAVE LOC": 40110355, "TIPO DE\nASENTAMIENTO": "COMUNIDAD INDIGENA", "NOMBRE": "EL NARANJO", "MONTO\nASIGNADO\n(PESOS)": 775794, "LATITUD": 18.020975, "LONGITUD": -91.12831 }, "geometry": { "type": "Point", "coordinates": [ -91.12831, 18.020975 ] } },
{ "type": "Feature", "properties": { "fid": 100, "NO": 100, "ENTIDAD": "CAMPECHE", "MUNICIPIO": "CANDELARIA", "PUEBLO\nINDIGENA O\nAFROMEXICANO": "CH'OL", "LOCALIDAD": "LAS GOLONDRINAS", "CLAVE LOC": 40110212, "TIPO DE\nASENTAMIENTO": "COMUNIDAD INDIGENA", "NOMBRE": "LAS GOLONDRINAS", "MONTO\nASIGNADO\n(PESOS)": 669898, "LATITUD": 17.888405, "LONGITUD": -90.815335 }, "geometry": { "type": "Point", "coordinates": [ -90.815335, 17.888405 ] } },
{ "type": "Feature", "properties": { "fid": 101, "NO": 101, "ENTIDAD": "CAMPECHE", "MUNICIPIO": "CANDELARIA", "PUEBLO\nINDIGENA O\nAFROMEXICANO": "CH'OL", "LOCALIDAD": "MIGUEL DE LA MADRID (EL PAÑUELO) ", "CLAVE LOC": 40110341, "TIPO DE\nASENTAMIENTO": "COMUNIDAD INDIGENA", "NOMBRE": "EL PAÑUELO (MIGUEL DE LA MADRID)", "MONTO\nASIGNADO\n(PESOS)": 500141, "LATITUD": 17.995102, "LONGITUD": -90.406726 }, "geometry": { "type": "Point", "coordinates": [ -90.406726, 17.995102 ] } },
{ "type": "Feature", "properties": { "fid": 102, "NO": 102, "ENTIDAD": "CAMPECHE", "MUNICIPIO": "CANDELARIA", "PUEBLO\nINDIGENA O\nAFROMEXICANO": "MAYA", "LOCALIDAD": "MIGUEL HIDALGO Y COSTILLA", "CLAVE LOC": 40110342, "TIPO DE\nASENTAMIENTO": "COMUNIDAD INDIGENA", "NOMBRE": "MIGUEL HIDALGO Y COSTILLA (AGUAS VERDES)", "MONTO\nASIGNADO\n(PESOS)": 935851, "LATITUD": 17.887384, "LONGITUD": -90.847576 }, "geometry": { "type": "Point", "coordinates": [ -90.847576, 17.887384 ] } },
{ "type": "Feature", "properties": { "fid": 103, "NO": 103, "ENTIDAD": "CAMPECHE", "MUNICIPIO": "CANDELARIA", "PUEBLO\nINDIGENA O\nAFROMEXICANO": "CH'OL", "LOCALIDAD": "NUEVA ROSITA ", "CLAVE LOC": 40110367, "TIPO DE\nASENTAMIENTO": "COMUNIDAD INDIGENA", "NOMBRE": "NUEVA ROSITA", "MONTO\nASIGNADO\n(PESOS)": 669090, "LATITUD": 18.293049, "LONGITUD": -90.738574 }, "geometry": { "type": "Point", "coordinates": [ -90.738574, 18.293049 ] } },
{ "type": "Feature", "properties": { "fid": 104, "NO": 104, "ENTIDAD": "CAMPECHE", "MUNICIPIO": "CANDELARIA", "PUEBLO\nINDIGENA O\nAFROMEXICANO": "MAYA", "LOCALIDAD": "PEJELAGARTO ", "CLAVE LOC": 40110417, "TIPO DE\nASENTAMIENTO": "COMUNIDAD INDIGENA", "NOMBRE": "PEJELAGARTO", "MONTO\nASIGNADO\n(PESOS)": 859056, "LATITUD": 18.189643, "LONGITUD": -90.997586 }, "geometry": { "type": "Point", "coordinates": [ -90.997586, 18.189643 ] } },
{ "type": "Feature", "properties": { "fid": 105, "NO": 105, "ENTIDAD": "CAMPECHE", "MUNICIPIO": "CANDELARIA", "PUEBLO\nINDIGENA O\nAFROMEXICANO": "MAYA", "LOCALIDAD": "VENUSTIANO CARRANZA", "CLAVE LOC": 40110680, "TIPO DE\nASENTAMIENTO": "COMUNIDAD INDIGENA", "NOMBRE": "VENUSTIANO CARRANZA", "MONTO\nASIGNADO\n(PESOS)": 649689, "LATITUD": 18.146319, "LONGITUD": -91.028139 }, "geometry": { "type": "Point", "coordinates": [ -91.028139, 18.146319 ] } },
{ "type": "Feature", "properties": { "fid": 106, "NO": 106, "ENTIDAD": "CAMPECHE", "MUNICIPIO": "CARMEN", "PUEBLO\nINDIGENA O\nAFROMEXICANO": "CH'OL", "LOCALIDAD": "CHEKUBUL ", "CLAVE LOC": 40030611, "TIPO DE\nASENTAMIENTO": "COMUNIDAD INDIGENA", "NOMBRE": "CHEKUBUL", "MONTO\nASIGNADO\n(PESOS)": 1520302, "LATITUD": 18.825222, "LONGITUD": -91.010428 }, "geometry": { "type": "Point", "coordinates": [ -91.010428, 18.825222 ] } },
{ "type": "Feature", "properties": { "fid": 107, "NO": 107, "ENTIDAD": "CAMPECHE", "MUNICIPIO": "CARMEN", "PUEBLO\nINDIGENA O\nAFROMEXICANO": "MAYA", "LOCALIDAD": "CHICBUL ", "CLAVE LOC": 40030081, "TIPO DE\nASENTAMIENTO": "COMUNIDAD INDIGENA", "NOMBRE": "CHICBUL", "MONTO\nASIGNADO\n(PESOS)": 1569612, "LATITUD": 18.77713, "LONGITUD": -90.923387 }, "geometry": { "type": "Point", "coordinates": [ -90.923387, 18.77713 ] } },
{ "type": "Feature", "properties": { "fid": 108, "NO": 108, "ENTIDAD": "CAMPECHE", "MUNICIPIO": "CARMEN", "PUEBLO\nINDIGENA O\nAFROMEXICANO": "YOKOT'AN\n(CHONTAL DE\nTABASCO)", "LOCALIDAD": "COLONIA EMILIANO ZAPATA ", "CLAVE LOC": 40030262, "TIPO DE\nASENTAMIENTO": "COMUNIDAD INDIGENA", "NOMBRE": "SECCIÓN EMILIANO ZAPATA", "MONTO\nASIGNADO\n(PESOS)": 1260007, "LATITUD": 18.664832, "LONGITUD": -92.311446 }, "geometry": { "type": "Point", "coordinates": [ -92.311446, 18.664832 ] } },
{ "type": "Feature", "properties": { "fid": 109, "NO": 109, "ENTIDAD": "CAMPECHE", "MUNICIPIO": "CARMEN", "PUEBLO\nINDIGENA O\nAFROMEXICANO": "CH'OL", "LOCALIDAD": "CONQUISTA CAMPESINA ", "CLAVE LOC": 40033263, "TIPO DE\nASENTAMIENTO": "COMUNIDAD INDIGENA", "NOMBRE": "CONQUISTA CAMPESINA", "MONTO\nASIGNADO\n(PESOS)": 801662, "LATITUD": 18.178562, "LONGITUD": -91.29009 }, "geometry": { "type": "Point", "coordinates": [ -91.29009, 18.178562 ] } },
{ "type": "Feature", "properties": { "fid": 110, "NO": 110, "ENTIDAD": "CAMPECHE", "MUNICIPIO": "CARMEN", "PUEBLO\nINDIGENA O\nAFROMEXICANO": "CH'OL", "LOCALIDAD": "JUAN DE LA CABADA VERA ", "CLAVE LOC": 40033155, "TIPO DE\nASENTAMIENTO": "COMUNIDAD INDIGENA", "NOMBRE": "JUAN DE LA CABADA VERA", "MONTO\nASIGNADO\n(PESOS)": 522775, "LATITUD": 18.282495, "LONGITUD": -91.436357 }, "geometry": { "type": "Point", "coordinates": [ -91.436357, 18.282495 ] } },
{ "type": "Feature", "properties": { "fid": 111, "NO": 111, "ENTIDAD": "CAMPECHE", "MUNICIPIO": "CARMEN", "PUEBLO\nINDIGENA O\nAFROMEXICANO": "CH'OL", "LOCALIDAD": "LA CRISTALINA", "CLAVE LOC": 40030612, "TIPO DE\nASENTAMIENTO": "COMUNIDAD INDIGENA", "NOMBRE": "LA CRISTALINA", "MONTO\nASIGNADO\n(PESOS)": 739418, "LATITUD": 18.729512, "LONGITUD": -91.055971 }, "geometry": { "type": "Point", "coordinates": [ -91.055971, 18.729512 ] } },
{ "type": "Feature", "properties": { "fid": 112, "NO": 112, "ENTIDAD": "CAMPECHE", "MUNICIPIO": "CARMEN", "PUEBLO\nINDIGENA O\nAFROMEXICANO": "CH'OL", "LOCALIDAD": "MAMANTEL (PANCHO VILLA) ", "CLAVE LOC": 40033333, "TIPO DE\nASENTAMIENTO": "COMUNIDAD INDIGENA", "NOMBRE": "MAMANTEL (FRANCISCO VILLA)", "MONTO\nASIGNADO\n(PESOS)": 1230098, "LATITUD": 18.525034, "LONGITUD": -91.089399 }, "geometry": { "type": "Point", "coordinates": [ -91.089399, 18.525034 ] } },
{ "type": "Feature", "properties": { "fid": 113, "NO": 113, "ENTIDAD": "CAMPECHE", "MUNICIPIO": "CARMEN", "PUEBLO\nINDIGENA O\nAFROMEXICANO": "MAYA", "LOCALIDAD": "OXCABAL", "CLAVE LOC": 40031776, "TIPO DE\nASENTAMIENTO": "COMUNIDAD INDIGENA", "NOMBRE": "OXCABAL", "MONTO\nASIGNADO\n(PESOS)": 713550, "LATITUD": 18.863221, "LONGITUD": -90.966679 }, "geometry": { "type": "Point", "coordinates": [ -90.966679, 18.863221 ] } },
{ "type": "Feature", "properties": { "fid": 114, "NO": 114, "ENTIDAD": "CAMPECHE", "MUNICIPIO": "CARMEN", "PUEBLO\nINDIGENA O\nAFROMEXICANO": "MAYA", "LOCALIDAD": "PLAN DE AYALA ", "CLAVE LOC": 40030066, "TIPO DE\nASENTAMIENTO": "COMUNIDAD INDIGENA", "NOMBRE": "PLAN DE AYALA", "MONTO\nASIGNADO\n(PESOS)": 829955, "LATITUD": 18.777326, "LONGITUD": -90.929273 }, "geometry": { "type": "Point", "coordinates": [ -90.929273, 18.777326 ] } },
{ "type": "Feature", "properties": { "fid": 115, "NO": 115, "ENTIDAD": "CAMPECHE", "MUNICIPIO": "CARMEN", "PUEBLO\nINDIGENA O\nAFROMEXICANO": "MAYA", "LOCALIDAD": "SAN ISIDRO", "CLAVE LOC": 40033531, "TIPO DE\nASENTAMIENTO": "COMUNIDAD INDIGENA", "NOMBRE": "SAN ISIDRO", "MONTO\nASIGNADO\n(PESOS)": 557535, "LATITUD": 18.632291, "LONGITUD": -91.049721 }, "geometry": { "type": "Point", "coordinates": [ -91.049721, 18.632291 ] } },
{ "type": "Feature", "properties": { "fid": 116, "NO": 116, "ENTIDAD": "CAMPECHE", "MUNICIPIO": "CHAMPOTON", "PUEBLO\nINDIGENA O\nAFROMEXICANO": "MAYA", "LOCALIDAD": "AH-KIM-PECH", "CLAVE LOC": 40040115, "TIPO DE\nASENTAMIENTO": "COMUNIDAD INDIGENA", "NOMBRE": "AH-KIM-PECH", "MONTO\nASIGNADO\n(PESOS)": 243888, "LATITUD": 18.999016, "LONGITUD": -90.243543 }, "geometry": { "type": "Point", "coordinates": [ -90.243543, 18.999016 ] } },
{ "type": "Feature", "properties": { "fid": 117, "NO": 117, "ENTIDAD": "CAMPECHE", "MUNICIPIO": "CHAMPOTON", "PUEBLO\nINDIGENA O\nAFROMEXICANO": "MAYA", "LOCALIDAD": "AQUILES SERDAN (CHUINA) ", "CLAVE LOC": 40040010, "TIPO DE\nASENTAMIENTO": "COMUNIDAD INDIGENA", "NOMBRE": "AQUILES SERDÁN CHUINÁ", "MONTO\nASIGNADO\n(PESOS)": 905942, "LATITUD": 18.963503, "LONGITUD": -90.713369 }, "geometry": { "type": "Point", "coordinates": [ -90.713369, 18.963503 ] } },
{ "type": "Feature", "properties": { "fid": 118, "NO": 118, "ENTIDAD": "CAMPECHE", "MUNICIPIO": "CHAMPOTON", "PUEBLO\nINDIGENA O\nAFROMEXICANO": "MAYA", "LOCALIDAD": "ARELLANO", "CLAVE LOC": 40040004, "TIPO DE\nASENTAMIENTO": "COMUNIDAD INDIGENA", "NOMBRE": "ARELLANO", "MONTO\nASIGNADO\n(PESOS)": 568044, "LATITUD": 19.37747, "LONGITUD": -90.463483 }, "geometry": { "type": "Point", "coordinates": [ -90.463483, 19.37747 ] } },
{ "type": "Feature", "properties": { "fid": 119, "NO": 119, "ENTIDAD": "CAMPECHE", "MUNICIPIO": "CHAMPOTON", "PUEBLO\nINDIGENA O\nAFROMEXICANO": "MAYA", "LOCALIDAD": "BUENAVENTURA", "CLAVE LOC": 40040125, "TIPO DE\nASENTAMIENTO": "COMUNIDAD INDIGENA", "NOMBRE": "BUENAVENTURA", "MONTO\nASIGNADO\n(PESOS)": 225296, "LATITUD": 19.155991, "LONGITUD": -90.270668 }, "geometry": { "type": "Point", "coordinates": [ -90.270668, 19.155991 ] } },
{ "type": "Feature", "properties": { "fid": 120, "NO": 120, "ENTIDAD": "CAMPECHE", "MUNICIPIO": "CHAMPOTON", "PUEBLO\nINDIGENA O\nAFROMEXICANO": "MAYA", "LOCALIDAD": "CANASAYAB ", "CLAVE LOC": 40040005, "TIPO DE\nASENTAMIENTO": "COMUNIDAD INDIGENA", "NOMBRE": "CANASAYAB", "MONTO\nASIGNADO\n(PESOS)": 273798, "LATITUD": 19.296993, "LONGITUD": -90.568641 }, "geometry": { "type": "Point", "coordinates": [ -90.568641, 19.296993 ] } },
{ "type": "Feature", "properties": { "fid": 121, "NO": 121, "ENTIDAD": "CAMPECHE", "MUNICIPIO": "CHAMPOTON", "PUEBLO\nINDIGENA O\nAFROMEXICANO": "MAYA", "LOCALIDAD": "CAÑAVERAL ", "CLAVE LOC": 40040130, "TIPO DE\nASENTAMIENTO": "COMUNIDAD INDIGENA", "NOMBRE": "CAÑAVERAL", "MONTO\nASIGNADO\n(PESOS)": 353826, "LATITUD": 19.216697, "LONGITUD": -90.466869 }, "geometry": { "type": "Point", "coordinates": [ -90.466869, 19.216697 ] } },
{ "type": "Feature", "properties": { "fid": 122, "NO": 122, "ENTIDAD": "CAMPECHE", "MUNICIPIO": "CHAMPOTON", "PUEBLO\nINDIGENA O\nAFROMEXICANO": "MAYA", "LOCALIDAD": "CARLOS SALINAS DE GORTARI", "CLAVE LOC": 40041614, "TIPO DE\nASENTAMIENTO": "COMUNIDAD INDIGENA", "NOMBRE": "CARLOS SALINAS DE GORTARI", "MONTO\nASIGNADO\n(PESOS)": 340084, "LATITUD": 19.150925, "LONGITUD": -90.266171 }, "geometry": { "type": "Point", "coordinates": [ -90.266171, 19.150925 ] } },
{ "type": "Feature", "properties": { "fid": 123, "NO": 123, "ENTIDAD": "CAMPECHE", "MUNICIPIO": "CHAMPOTON", "PUEBLO\nINDIGENA O\nAFROMEXICANO": "MAYA", "LOCALIDAD": "CHAC CHAITO", "CLAVE LOC": 40040089, "TIPO DE\nASENTAMIENTO": "COMUNIDAD INDIGENA", "NOMBRE": "CHACCHEITO", "MONTO\nASIGNADO\n(PESOS)": 363527, "LATITUD": 19.051541, "LONGITUD": -90.4078 }, "geometry": { "type": "Point", "coordinates": [ -90.4078, 19.051541 ] } },
{ "type": "Feature", "properties": { "fid": 124, "NO": 124, "ENTIDAD": "CAMPECHE", "MUNICIPIO": "CHAMPOTON", "PUEBLO\nINDIGENA O\nAFROMEXICANO": "MAYA", "LOCALIDAD": "CHILAM BALAM ", "CLAVE LOC": 40040140, "TIPO DE\nASENTAMIENTO": "COMUNIDAD INDIGENA", "NOMBRE": "CHILAM BALAM", "MONTO\nASIGNADO\n(PESOS)": 243080, "LATITUD": 19.001722, "LONGITUD": -90.248475 }, "geometry": { "type": "Point", "coordinates": [ -90.248475, 19.001722 ] } },
{ "type": "Feature", "properties": { "fid": 125, "NO": 125, "ENTIDAD": "CAMPECHE", "MUNICIPIO": "CHAMPOTON", "PUEBLO\nINDIGENA O\nAFROMEXICANO": "MAYA", "LOCALIDAD": "CINCO DE FEBRERO", "CLAVE LOC": 40040442, "TIPO DE\nASENTAMIENTO": "COMUNIDAD INDIGENA", "NOMBRE": "CINCO DE FEBRERO", "MONTO\nASIGNADO\n(PESOS)": 737801, "LATITUD": 18.855757, "LONGITUD": -90.633425 }, "geometry": { "type": "Point", "coordinates": [ -90.633425, 18.855757 ] } },
{ "type": "Feature", "properties": { "fid": 126, "NO": 126, "ENTIDAD": "CAMPECHE", "MUNICIPIO": "CHAMPOTON", "PUEBLO\nINDIGENA O\nAFROMEXICANO": "MAYA", "LOCALIDAD": "CIUDAD DEL SOL ", "CLAVE LOC": 40040017, "TIPO DE\nASENTAMIENTO": "COMUNIDAD INDIGENA", "NOMBRE": "CIUDAD DEL SOL", "MONTO\nASIGNADO\n(PESOS)": 647264, "LATITUD": 19.478346, "LONGITUD": -90.702709 }, "geometry": { "type": "Point", "coordinates": [ -90.702709, 19.478346 ] } },
{ "type": "Feature", "properties": { "fid": 127, "NO": 127, "ENTIDAD": "CAMPECHE", "MUNICIPIO": "CHAMPOTON", "PUEBLO\nINDIGENA O\nAFROMEXICANO": "MAYA", "LOCALIDAD": "CORONEL ORTIZ AVILA ", "CLAVE LOC": 40040637, "TIPO DE\nASENTAMIENTO": "COMUNIDAD INDIGENA", "NOMBRE": "CORONEL JOSÉ ORTIZ ÁVILA", "MONTO\nASIGNADO\n(PESOS)": 163860, "LATITUD": 19.218657, "LONGITUD": -90.364905 }, "geometry": { "type": "Point", "coordinates": [ -90.364905, 19.218657 ] } },
{ "type": "Feature", "properties": { "fid": 128, "NO": 128, "ENTIDAD": "CAMPECHE", "MUNICIPIO": "CHAMPOTON", "PUEBLO\nINDIGENA O\nAFROMEXICANO": "MAYA", "LOCALIDAD": "DZACABUCHEN ", "CLAVE LOC": 40040086, "TIPO DE\nASENTAMIENTO": "COMUNIDAD INDIGENA", "NOMBRE": "DZACABUCHÉN", "MONTO\nASIGNADO\n(PESOS)": 281881, "LATITUD": 19.04089, "LONGITUD": -90.708734 }, "geometry": { "type": "Point", "coordinates": [ -90.708734, 19.04089 ] } },
{ "type": "Feature", "properties": { "fid": 129, "NO": 129, "ENTIDAD": "CAMPECHE", "MUNICIPIO": "CHAMPOTON", "PUEBLO\nINDIGENA O\nAFROMEXICANO": "MAYA", "LOCALIDAD": "DZITBALCHE CASTELLOT", "CLAVE LOC": 40041701, "TIPO DE\nASENTAMIENTO": "COMUNIDAD INDIGENA", "NOMBRE": "DZITBALCHÉ DE CASTELLOT", "MONTO\nASIGNADO\n(PESOS)": 259247, "LATITUD": 19.152096, "LONGITUD": -90.262287 }, "geometry": { "type": "Point", "coordinates": [ -90.262287, 19.152096 ] } },
{ "type": "Feature", "properties": { "fid": 130, "NO": 130, "ENTIDAD": "CAMPECHE", "MUNICIPIO": "CHAMPOTON", "PUEBLO\nINDIGENA O\nAFROMEXICANO": "MAYA", "LOCALIDAD": "EL PORVENIR", "CLAVE LOC": 40040233, "TIPO DE\nASENTAMIENTO": "COMUNIDAD INDIGENA", "NOMBRE": "EL PORVENIR", "MONTO\nASIGNADO\n(PESOS)": 416070, "LATITUD": 19.464063, "LONGITUD": -90.666621 }, "geometry": { "type": "Point", "coordinates": [ -90.666621, 19.464063 ] } },
{ "type": "Feature", "properties": { "fid": 131, "NO": 131, "ENTIDAD": "CAMPECHE", "MUNICIPIO": "CHAMPOTON", "PUEBLO\nINDIGENA O\nAFROMEXICANO": "CH'OL", "LOCALIDAD": "GENERAL ORTIZ AVILA", "CLAVE LOC": 40041610, "TIPO DE\nASENTAMIENTO": "COMUNIDAD INDIGENA", "NOMBRE": "GENERAL ORTIZ ÁVILA", "MONTO\nASIGNADO\n(PESOS)": 532476, "LATITUD": 18.967384, "LONGITUD": -90.726875 }, "geometry": { "type": "Point", "coordinates": [ -90.726875, 18.967384 ] } },
{ "type": "Feature", "properties": { "fid": 132, "NO": 132, "ENTIDAD": "CAMPECHE", "MUNICIPIO": "CHAMPOTON", "PUEBLO\nINDIGENA O\nAFROMEXICANO": "MAYA", "LOCALIDAD": "HOOL", "CLAVE LOC": 40040014, "TIPO DE\nASENTAMIENTO": "COMUNIDAD INDIGENA", "NOMBRE": "HOOL", "MONTO\nASIGNADO\n(PESOS)": 1071657, "LATITUD": 19.513711, "LONGITUD": -90.445087 }, "geometry": { "type": "Point", "coordinates": [ -90.445087, 19.513711 ] } },
{ "type": "Feature", "properties": { "fid": 133, "NO": 133, "ENTIDAD": "CAMPECHE", "MUNICIPIO": "CHAMPOTON", "PUEBLO\nINDIGENA O\nAFROMEXICANO": "CH'OL", "LOCALIDAD": "IGNACIO LOPEZ RAYON ", "CLAVE LOC": 40041763, "TIPO DE\nASENTAMIENTO": "COMUNIDAD INDIGENA", "NOMBRE": "IGNACIO LÓPEZ RAYÓN", "MONTO\nASIGNADO\n(PESOS)": 272989, "LATITUD": 19.003056, "LONGITUD": -90.244431 }, "geometry": { "type": "Point", "coordinates": [ -90.244431, 19.003056 ] } },
{ "type": "Feature", "properties": { "fid": 134, "NO": 134, "ENTIDAD": "CAMPECHE", "MUNICIPIO": "CHAMPOTON", "PUEBLO\nINDIGENA O\nAFROMEXICANO": "MAYA", "LOCALIDAD": "KILOMETRO SESENTA Y SIETE (VENUSTIANO CARRANZA)", "CLAVE LOC": 40042247, "TIPO DE\nASENTAMIENTO": "COMUNIDAD INDIGENA", "NOMBRE": "KILÓMETRO SESENTA Y SIETE (VENUSTIANO\nCARRANZA)", "MONTO\nASIGNADO\n(PESOS)": 369185, "LATITUD": 18.757284, "LONGITUD": -90.731307 }, "geometry": { "type": "Point", "coordinates": [ -90.731307, 18.757284 ] } },
{ "type": "Feature", "properties": { "fid": 135, "NO": 135, "ENTIDAD": "CAMPECHE", "MUNICIPIO": "CHAMPOTON", "PUEBLO\nINDIGENA O\nAFROMEXICANO": "MAYA", "LOCALIDAD": "LA JOYA ", "CLAVE LOC": 40040016, "TIPO DE\nASENTAMIENTO": "COMUNIDAD INDIGENA", "NOMBRE": "LA JOYA", "MONTO\nASIGNADO\n(PESOS)": 1048215, "LATITUD": 19.482975, "LONGITUD": -90.675242 }, "geometry": { "type": "Point", "coordinates": [ -90.675242, 19.482975 ] } },
{ "type": "Feature", "properties": { "fid": 136, "NO": 136, "ENTIDAD": "CAMPECHE", "MUNICIPIO": "CHAMPOTON", "PUEBLO\nINDIGENA O\nAFROMEXICANO": "MAYA", "LOCALIDAD": "LA PROVIDENCIA ", "CLAVE LOC": 40041764, "TIPO DE\nASENTAMIENTO": "COMUNIDAD INDIGENA", "NOMBRE": "LA PROVIDENCIA", "MONTO\nASIGNADO\n(PESOS)": 152542, "LATITUD": 18.995555, "LONGITUD": -90.243055 }, "geometry": { "type": "Point", "coordinates": [ -90.243055, 18.995555 ] } },
{ "type": "Feature", "properties": { "fid": 137, "NO": 137, "ENTIDAD": "CAMPECHE", "MUNICIPIO": "CHAMPOTON", "PUEBLO\nINDIGENA O\nAFROMEXICANO": "MAYA", "LOCALIDAD": "LAZARO CARDENAS ", "CLAVE LOC": 40041615, "TIPO DE\nASENTAMIENTO": "COMUNIDAD INDIGENA", "NOMBRE": "LÁZARO CÁRDENAS", "MONTO\nASIGNADO\n(PESOS)": 286732, "LATITUD": 19.010418, "LONGITUD": -90.565311 }, "geometry": { "type": "Point", "coordinates": [ -90.565311, 19.010418 ] } },
{ "type": "Feature", "properties": { "fid": 138, "NO": 138, "ENTIDAD": "CAMPECHE", "MUNICIPIO": "CHAMPOTON", "PUEBLO\nINDIGENA O\nAFROMEXICANO": "MAYA", "LOCALIDAD": "LOPEZ MATEOS (LA DESCONFIANZA) ", "CLAVE LOC": 40040003, "TIPO DE\nASENTAMIENTO": "COMUNIDAD INDIGENA", "NOMBRE": "LÓPEZ MATEOS (LA DESCONFIANZA)", "MONTO\nASIGNADO\n(PESOS)": 462147, "LATITUD": 19.193472, "LONGITUD": -90.564729 }, "geometry": { "type": "Point", "coordinates": [ -90.564729, 19.193472 ] } },
{ "type": "Feature", "properties": { "fid": 139, "NO": 139, "ENTIDAD": "CAMPECHE", "MUNICIPIO": "CHAMPOTON", "PUEBLO\nINDIGENA O\nAFROMEXICANO": "MAYA", "LOCALIDAD": "LOPEZ PORTILLO NUMERO 2 ", "CLAVE LOC": 40040220, "TIPO DE\nASENTAMIENTO": "COMUNIDAD INDIGENA", "NOMBRE": "JOSÉ LÓPEZ PORTILLO", "MONTO\nASIGNADO\n(PESOS)": 185685, "LATITUD": 19.236171, "LONGITUD": -90.254318 }, "geometry": { "type": "Point", "coordinates": [ -90.254318, 19.236171 ] } },
{ "type": "Feature", "properties": { "fid": 140, "NO": 140, "ENTIDAD": "CAMPECHE", "MUNICIPIO": "CHAMPOTON", "PUEBLO\nINDIGENA O\nAFROMEXICANO": "Q'ANJOB'AL", "LOCALIDAD": "MAYA TECUN I ", "CLAVE LOC": 40040191, "TIPO DE\nASENTAMIENTO": "COMUNIDAD INDIGENA", "NOMBRE": "MAYA TECÚN I", "MONTO\nASIGNADO\n(PESOS)": 1171087, "LATITUD": 19.153145, "LONGITUD": -90.506113 }, "geometry": { "type": "Point", "coordinates": [ -90.506113, 19.153145 ] } },
{ "type": "Feature", "properties": { "fid": 141, "NO": 141, "ENTIDAD": "CAMPECHE", "MUNICIPIO": "CHAMPOTON", "PUEBLO\nINDIGENA O\nAFROMEXICANO": "Q'EQCHI'", "LOCALIDAD": "MAYA TECUN II ", "CLAVE LOC": 40040192, "TIPO DE\nASENTAMIENTO": "COMUNIDAD INDIGENA", "NOMBRE": "MAYA TECÚN II", "MONTO\nASIGNADO\n(PESOS)": 910792, "LATITUD": 19.164882, "LONGITUD": -90.506599 }, "geometry": { "type": "Point", "coordinates": [ -90.506599, 19.164882 ] } },
{ "type": "Feature", "properties": { "fid": 142, "NO": 142, "ENTIDAD": "CAMPECHE", "MUNICIPIO": "CHAMPOTON", "PUEBLO\nINDIGENA O\nAFROMEXICANO": "CH'OL", "LOCALIDAD": "MIGUEL ALLENDE ", "CLAVE LOC": 40041765, "TIPO DE\nASENTAMIENTO": "COMUNIDAD INDIGENA", "NOMBRE": "MIGUEL ALLENDE", "MONTO\nASIGNADO\n(PESOS)": 218829, "LATITUD": 19.01096, "LONGITUD": -90.309959 }, "geometry": { "type": "Point", "coordinates": [ -90.309959, 19.01096 ] } },
{ "type": "Feature", "properties": { "fid": 143, "NO": 143, "ENTIDAD": "CAMPECHE", "MUNICIPIO": "CHAMPOTON", "PUEBLO\nINDIGENA O\nAFROMEXICANO": "MAYA", "LOCALIDAD": "MIGUEL COLORADO", "CLAVE LOC": 40041603, "TIPO DE\nASENTAMIENTO": "COMUNIDAD INDIGENA", "NOMBRE": "MIGUEL COLORADO", "MONTO\nASIGNADO\n(PESOS)": 879266, "LATITUD": 18.78523, "LONGITUD": -90.654999 }, "geometry": { "type": "Point", "coordinates": [ -90.654999, 18.78523 ] } },
{ "type": "Feature", "properties": { "fid": 144, "NO": 144, "ENTIDAD": "CAMPECHE", "MUNICIPIO": "CHAMPOTON", "PUEBLO\nINDIGENA O\nAFROMEXICANO": "MAYA", "LOCALIDAD": "MOQUEL ", "CLAVE LOC": 40040019, "TIPO DE\nASENTAMIENTO": "COMUNIDAD INDIGENA", "NOMBRE": "MOQUEL", "MONTO\nASIGNADO\n(PESOS)": 654539, "LATITUD": 19.352898, "LONGITUD": -90.673685 }, "geometry": { "type": "Point", "coordinates": [ -90.673685, 19.352898 ] } },
{ "type": "Feature", "properties": { "fid": 145, "NO": 145, "ENTIDAD": "CAMPECHE", "MUNICIPIO": "CHAMPOTON", "PUEBLO\nINDIGENA O\nAFROMEXICANO": "TSOTSIL", "LOCALIDAD": "NUEVA ESPERANZA NUMERO 2 (SANTO DOMINGO)", "CLAVE LOC": 40040239, "TIPO DE\nASENTAMIENTO": "COMUNIDAD INDIGENA", "NOMBRE": "NUEVA ESPERANZA NÚMERO 2", "MONTO\nASIGNADO\n(PESOS)": 272181, "LATITUD": 19.196181, "LONGITUD": -90.640178 }, "geometry": { "type": "Point", "coordinates": [ -90.640178, 19.196181 ] } },
{ "type": "Feature", "properties": { "fid": 146, "NO": 146, "ENTIDAD": "CAMPECHE", "MUNICIPIO": "CHAMPOTON", "PUEBLO\nINDIGENA O\nAFROMEXICANO": "MAYA", "LOCALIDAD": "PIXOYAL ", "CLAVE LOC": 40040448, "TIPO DE\nASENTAMIENTO": "COMUNIDAD INDIGENA", "NOMBRE": "PIXOYAL", "MONTO\nASIGNADO\n(PESOS)": 549451, "LATITUD": 18.933876, "LONGITUD": -90.598019 }, "geometry": { "type": "Point", "coordinates": [ -90.598019, 18.933876 ] } },
{ "type": "Feature", "properties": { "fid": 147, "NO": 147, "ENTIDAD": "CAMPECHE", "MUNICIPIO": "CHAMPOTON", "PUEBLO\nINDIGENA O\nAFROMEXICANO": "MAYA", "LOCALIDAD": "PROFESOR GRACIANO SANCHEZ", "CLAVE LOC": 40040012, "TIPO DE\nASENTAMIENTO": "COMUNIDAD INDIGENA", "NOMBRE": "PROFESOR GRACIANO SÁNCHEZ (CANTEMÓ)", "MONTO\nASIGNADO\n(PESOS)": 543793, "LATITUD": 18.804708, "LONGITUD": -90.742648 }, "geometry": { "type": "Point", "coordinates": [ -90.742648, 18.804708 ] } },
{ "type": "Feature", "properties": { "fid": 148, "NO": 148, "ENTIDAD": "CAMPECHE", "MUNICIPIO": "CHAMPOTON", "PUEBLO\nINDIGENA O\nAFROMEXICANO": "TSOTSIL", "LOCALIDAD": "PUNTA XEN", "CLAVE LOC": 40041787, "TIPO DE\nASENTAMIENTO": "COMUNIDAD INDIGENA", "NOMBRE": "PUNTA XEN", "MONTO\nASIGNADO\n(PESOS)": 301971, "LATITUD": 19.179517, "LONGITUD": -90.90268 }, "geometry": { "type": "Point", "coordinates": [ -90.90268, 19.179517 ] } },
{ "type": "Feature", "properties": { "fid": 149, "NO": 149, "ENTIDAD": "CAMPECHE", "MUNICIPIO": "CHAMPOTON", "PUEBLO\nINDIGENA O\nAFROMEXICANO": "MAYA", "LOCALIDAD": "PUSTUNICH ", "CLAVE LOC": 40040027, "TIPO DE\nASENTAMIENTO": "COMUNIDAD INDIGENA", "NOMBRE": "PUSTUNICH", "MONTO\nASIGNADO\n(PESOS)": 670707, "LATITUD": 19.145316, "LONGITUD": -90.479426 }, "geometry": { "type": "Point", "coordinates": [ -90.479426, 19.145316 ] } },
{ "type": "Feature", "properties": { "fid": 150, "NO": 150, "ENTIDAD": "CAMPECHE", "MUNICIPIO": "CHAMPOTON", "PUEBLO\nINDIGENA O\nAFROMEXICANO": "MAYA", "LOCALIDAD": "REVOLUCION ", "CLAVE LOC": 40040028, "TIPO DE\nASENTAMIENTO": "COMUNIDAD INDIGENA", "NOMBRE": "REVOLUCIÓN", "MONTO\nASIGNADO\n(PESOS)": 637563, "LATITUD": 18.905414, "LONGITUD": -90.731823 }, "geometry": { "type": "Point", "coordinates": [ -90.731823, 18.905414 ] } },
{ "type": "Feature", "properties": { "fid": 151, "NO": 151, "ENTIDAD": "CAMPECHE", "MUNICIPIO": "CHAMPOTON", "PUEBLO\nINDIGENA O\nAFROMEXICANO": "MAYA", "LOCALIDAD": "SAN ANTONIO DEL RIO", "CLAVE LOC": 40040243, "TIPO DE\nASENTAMIENTO": "COMUNIDAD INDIGENA", "NOMBRE": "SAN ANTONIO DEL RIO", "MONTO\nASIGNADO\n(PESOS)": 243888, "LATITUD": 19.321944, "LONGITUD": -90.554167 }, "geometry": { "type": "Point", "coordinates": [ -90.554167, 19.321944 ] } },
{ "type": "Feature", "properties": { "fid": 152, "NO": 152, "ENTIDAD": "CAMPECHE", "MUNICIPIO": "CHAMPOTON", "PUEBLO\nINDIGENA O\nAFROMEXICANO": "MAYA", "LOCALIDAD": "SAN ANTONIO YACASAY ", "CLAVE LOC": 40040050, "TIPO DE\nASENTAMIENTO": "COMUNIDAD INDIGENA", "NOMBRE": "SAN ANTONIO YACASAY", "MONTO\nASIGNADO\n(PESOS)": 490440, "LATITUD": 19.145835, "LONGITUD": -90.395296 }, "geometry": { "type": "Point", "coordinates": [ -90.395296, 19.145835 ] } },
{ "type": "Feature", "properties": { "fid": 153, "NO": 153, "ENTIDAD": "CAMPECHE", "MUNICIPIO": "CHAMPOTON", "PUEBLO\nINDIGENA O\nAFROMEXICANO": "MAYA", "LOCALIDAD": "SAN JUAN CARPIZO", "CLAVE LOC": 40040033, "TIPO DE\nASENTAMIENTO": "COMUNIDAD INDIGENA", "NOMBRE": "SAN JUAN CARPIZO", "MONTO\nASIGNADO\n(PESOS)": 395861, "LATITUD": 19.300733, "LONGITUD": -90.46925 }, "geometry": { "type": "Point", "coordinates": [ -90.46925, 19.300733 ] } },
{ "type": "Feature", "properties": { "fid": 154, "NO": 154, "ENTIDAD": "CAMPECHE", "MUNICIPIO": "CHAMPOTON", "PUEBLO\nINDIGENA O\nAFROMEXICANO": "MAYA", "LOCALIDAD": "SAN PABLO PIXTUN ", "CLAVE LOC": 40040024, "TIPO DE\nASENTAMIENTO": "COMUNIDAD INDIGENA", "NOMBRE": "SAN PABLO PIXTÚN", "MONTO\nASIGNADO\n(PESOS)": 1483117, "LATITUD": 19.13168, "LONGITUD": -90.732437 }, "geometry": { "type": "Point", "coordinates": [ -90.732437, 19.13168 ] } },
{ "type": "Feature", "properties": { "fid": 155, "NO": 155, "ENTIDAD": "CAMPECHE", "MUNICIPIO": "CHAMPOTON", "PUEBLO\nINDIGENA O\nAFROMEXICANO": "MAYA", "LOCALIDAD": "SANTA CRUZ DE ROVIRA ", "CLAVE LOC": 40040038, "TIPO DE\nASENTAMIENTO": "COMUNIDAD INDIGENA", "NOMBRE": "SANTA CRUZ DE ROVIRA", "MONTO\nASIGNADO\n(PESOS)": 190536, "LATITUD": 19.408407, "LONGITUD": -90.406611 }, "geometry": { "type": "Point", "coordinates": [ -90.406611, 19.408407 ] } },
{ "type": "Feature", "properties": { "fid": 156, "NO": 156, "ENTIDAD": "CAMPECHE", "MUNICIPIO": "CHAMPOTON", "PUEBLO\nINDIGENA O\nAFROMEXICANO": "K'ICHE'", "LOCALIDAD": "SANTO DOMINGO KESTE", "CLAVE LOC": 40040564, "TIPO DE\nASENTAMIENTO": "COMUNIDAD INDIGENA", "NOMBRE": "SANTO DOMINGO KESTÉ", "MONTO\nASIGNADO\n(PESOS)": 3141081, "LATITUD": 19.499772, "LONGITUD": -90.512188 }, "geometry": { "type": "Point", "coordinates": [ -90.512188, 19.499772 ] } },
{ "type": "Feature", "properties": { "fid": 157, "NO": 157, "ENTIDAD": "CAMPECHE", "MUNICIPIO": "CHAMPOTON", "PUEBLO\nINDIGENA O\nAFROMEXICANO": "MAYA", "LOCALIDAD": "ULUMAL", "CLAVE LOC": 40040082, "TIPO DE\nASENTAMIENTO": "COMUNIDAD INDIGENA", "NOMBRE": "ULUMAL", "MONTO\nASIGNADO\n(PESOS)": 717592, "LATITUD": 19.272996, "LONGITUD": -90.623 }, "geometry": { "type": "Point", "coordinates": [ -90.623, 19.272996 ] } },
{ "type": "Feature", "properties": { "fid": 158, "NO": 158, "ENTIDAD": "CAMPECHE", "MUNICIPIO": "CHAMPOTON", "PUEBLO\nINDIGENA O\nAFROMEXICANO": "TSOTSIL", "LOCALIDAD": "VALLE DE QUETZALCOATL ", "CLAVE LOC": 40040642, "TIPO DE\nASENTAMIENTO": "COMUNIDAD INDIGENA", "NOMBRE": "VALLE DE QUETZALCÓATL", "MONTO\nASIGNADO\n(PESOS)": 247121, "LATITUD": 19.224096, "LONGITUD": -90.242141 }, "geometry": { "type": "Point", "coordinates": [ -90.242141, 19.224096 ] } },
{ "type": "Feature", "properties": { "fid": 159, "NO": 159, "ENTIDAD": "CAMPECHE", "MUNICIPIO": "CHAMPOTON", "PUEBLO\nINDIGENA O\nAFROMEXICANO": "MAYA", "LOCALIDAD": "VILLA DE GUADALUPE ", "CLAVE LOC": 40040044, "TIPO DE\nASENTAMIENTO": "COMUNIDAD INDIGENA", "NOMBRE": "VILLA DE GUADALUPE", "MONTO\nASIGNADO\n(PESOS)": 429813, "LATITUD": 19.269519, "LONGITUD": -90.461014 }, "geometry": { "type": "Point", "coordinates": [ -90.461014, 19.269519 ] } },
{ "type": "Feature", "properties": { "fid": 160, "NO": 160, "ENTIDAD": "CAMPECHE", "MUNICIPIO": "CHAMPOTON", "PUEBLO\nINDIGENA O\nAFROMEXICANO": "MAYA", "LOCALIDAD": "VILLAMAR ", "CLAVE LOC": 40040521, "TIPO DE\nASENTAMIENTO": "COMUNIDAD INDIGENA", "NOMBRE": "VILLAMAR", "MONTO\nASIGNADO\n(PESOS)": 447597, "LATITUD": 19.291597, "LONGITUD": -90.772471 }, "geometry": { "type": "Point", "coordinates": [ -90.772471, 19.291597 ] } },
{ "type": "Feature", "properties": { "fid": 161, "NO": 161, "ENTIDAD": "CAMPECHE", "MUNICIPIO": "CHAMPOTON", "PUEBLO\nINDIGENA O\nAFROMEXICANO": "MAYA", "LOCALIDAD": "XBACAB ", "CLAVE LOC": 40040047, "TIPO DE\nASENTAMIENTO": "COMUNIDAD INDIGENA", "NOMBRE": "XBACAB", "MONTO\nASIGNADO\n(PESOS)": 1678742, "LATITUD": 18.939638, "LONGITUD": -90.724315 }, "geometry": { "type": "Point", "coordinates": [ -90.724315, 18.939638 ] } },
{ "type": "Feature", "properties": { "fid": 162, "NO": 162, "ENTIDAD": "CAMPECHE", "MUNICIPIO": "CHAMPOTON", "PUEBLO\nINDIGENA O\nAFROMEXICANO": "MAYA", "LOCALIDAD": "YOHALTUN ", "CLAVE LOC": 40040051, "TIPO DE\nASENTAMIENTO": "COMUNIDAD INDIGENA", "NOMBRE": "YOHALTÚN", "MONTO\nASIGNADO\n(PESOS)": 623013, "LATITUD": 19.011093, "LONGITUD": -90.313719 }, "geometry": { "type": "Point", "coordinates": [ -90.313719, 19.011093 ] } },
{ "type": "Feature", "properties": { "fid": 163, "NO": 163, "ENTIDAD": "CAMPECHE", "MUNICIPIO": "DZITBALCHE", "PUEBLO\nINDIGENA O\nAFROMEXICANO": "MAYA", "LOCALIDAD": "BACABCHEN ", "CLAVE LOC": 40130003, "TIPO DE\nASENTAMIENTO": "COMUNIDAD INDIGENA", "NOMBRE": "BACABCHÉN", "MONTO\nASIGNADO\n(PESOS)": 84639, "LATITUD": 20.288866, "LONGITUD": -90.055998 }, "geometry": { "type": "Point", "coordinates": [ -90.055998, 20.288866 ] } },
{ "type": "Feature", "properties": { "fid": 164, "NO": 164, "ENTIDAD": "CAMPECHE", "MUNICIPIO": "DZITBALCHE", "PUEBLO\nINDIGENA O\nAFROMEXICANO": "MAYA", "LOCALIDAD": "DZITBALCHE ", "CLAVE LOC": 40130001, "TIPO DE\nASENTAMIENTO": "COMUNIDAD INDIGENA", "NOMBRE": "DZITBALCHÉ", "MONTO\nASIGNADO\n(PESOS)": 267660, "LATITUD": 20.32074, "LONGITUD": -90.056828 }, "geometry": { "type": "Point", "coordinates": [ -90.056828, 20.32074 ] } },
{ "type": "Feature", "properties": { "fid": 165, "NO": 165, "ENTIDAD": "CAMPECHE", "MUNICIPIO": "ESCARCEGA", "PUEBLO\nINDIGENA O\nAFROMEXICANO": "YOKOT'AN\n(CHONTAL DE\nTABASCO)", "LOCALIDAD": "ALTAMIRA DE ZINAPARO", "CLAVE LOC": 40090936, "TIPO DE\nASENTAMIENTO": "COMUNIDAD INDIGENA", "NOMBRE": "ALTAMIRA DE ZINÁPARO", "MONTO\nASIGNADO\n(PESOS)": 1028005, "LATITUD": 18.581299, "LONGITUD": -90.257453 }, "geometry": { "type": "Point", "coordinates": [ -90.257453, 18.581299 ] } },
{ "type": "Feature", "properties": { "fid": 166, "NO": 166, "ENTIDAD": "CAMPECHE", "MUNICIPIO": "ESCARCEGA", "PUEBLO\nINDIGENA O\nAFROMEXICANO": "CH'OL", "LOCALIDAD": "CENTENARIO ", "CLAVE LOC": 40090941, "TIPO DE\nASENTAMIENTO": "COMUNIDAD INDIGENA", "NOMBRE": "CENTENARIO", "MONTO\nASIGNADO\n(PESOS)": 923726, "LATITUD": 18.650617, "LONGITUD": -90.2855 }, "geometry": { "type": "Point", "coordinates": [ -90.2855, 18.650617 ] } },
{ "type": "Feature", "properties": { "fid": 167, "NO": 167, "ENTIDAD": "CAMPECHE", "MUNICIPIO": "ESCARCEGA", "PUEBLO\nINDIGENA O\nAFROMEXICANO": "CH'OL", "LOCALIDAD": "CHAN LAGUNA", "CLAVE LOC": 40090945, "TIPO DE\nASENTAMIENTO": "COMUNIDAD INDIGENA", "NOMBRE": "CHAN LAGUNA", "MONTO\nASIGNADO\n(PESOS)": 555110, "LATITUD": 18.481335, "LONGITUD": -90.208774 }, "geometry": { "type": "Point", "coordinates": [ -90.208774, 18.481335 ] } },
{ "type": "Feature", "properties": { "fid": 168, "NO": 168, "ENTIDAD": "CAMPECHE", "MUNICIPIO": "ESCARCEGA", "PUEBLO\nINDIGENA O\nAFROMEXICANO": "CH'OL", "LOCALIDAD": "EL LECHUGAL ", "CLAVE LOC": 40090255, "TIPO DE\nASENTAMIENTO": "COMUNIDAD INDIGENA", "NOMBRE": "EL LECHUGAL", "MONTO\nASIGNADO\n(PESOS)": 597953, "LATITUD": 18.601574, "LONGITUD": -90.424371 }, "geometry": { "type": "Point", "coordinates": [ -90.424371, 18.601574 ] } },
{ "type": "Feature", "properties": { "fid": 169, "NO": 169, "ENTIDAD": "CAMPECHE", "MUNICIPIO": "ESCARCEGA", "PUEBLO\nINDIGENA O\nAFROMEXICANO": "CH'OL", "LOCALIDAD": "JOSE DE LA CRUZ BLANCO", "CLAVE LOC": 40090238, "TIPO DE\nASENTAMIENTO": "COMUNIDAD INDIGENA", "NOMBRE": "JOSÉ DE LA CRUZ BLANCO", "MONTO\nASIGNADO\n(PESOS)": 648881, "LATITUD": 18.621065, "LONGITUD": -90.784718 }, "geometry": { "type": "Point", "coordinates": [ -90.784718, 18.621065 ] } },
{ "type": "Feature", "properties": { "fid": 170, "NO": 170, "ENTIDAD": "CAMPECHE", "MUNICIPIO": "ESCARCEGA", "PUEBLO\nINDIGENA O\nAFROMEXICANO": "MAYA", "LOCALIDAD": "JUSTICIA SOCIAL", "CLAVE LOC": 40090242, "TIPO DE\nASENTAMIENTO": "COMUNIDAD INDIGENA", "NOMBRE": "JUSTICIA SOCIAL", "MONTO\nASIGNADO\n(PESOS)": 711125, "LATITUD": 18.621161, "LONGITUD": -90.386644 }, "geometry": { "type": "Point", "coordinates": [ -90.386644, 18.621161 ] } },
{ "type": "Feature", "properties": { "fid": 171, "NO": 171, "ENTIDAD": "CAMPECHE", "MUNICIPIO": "ESCARCEGA", "PUEBLO\nINDIGENA O\nAFROMEXICANO": "MAYA", "LOCALIDAD": "KILOMETRO TREINTA Y SEIS ", "CLAVE LOC": 40090247, "TIPO DE\nASENTAMIENTO": "COMUNIDAD INDIGENA", "NOMBRE": "KILÓMETRO TREINTA Y SEIS", "MONTO\nASIGNADO\n(PESOS)": 751543, "LATITUD": 18.617304, "LONGITUD": -90.84785 }, "geometry": { "type": "Point", "coordinates": [ -90.84785, 18.617304 ] } },
{ "type": "Feature", "properties": { "fid": 172, "NO": 172, "ENTIDAD": "CAMPECHE", "MUNICIPIO": "ESCARCEGA", "PUEBLO\nINDIGENA O\nAFROMEXICANO": "MAYA", "LOCALIDAD": "LA ESPERANZA ", "CLAVE LOC": 40090131, "TIPO DE\nASENTAMIENTO": "COMUNIDAD INDIGENA", "NOMBRE": "LA ESPERANZA.", "MONTO\nASIGNADO\n(PESOS)": 211553, "LATITUD": 18.740079, "LONGITUD": -90.734984 }, "geometry": { "type": "Point", "coordinates": [ -90.734984, 18.740079 ] } },
{ "type": "Feature", "properties": { "fid": 173, "NO": 173, "ENTIDAD": "CAMPECHE", "MUNICIPIO": "ESCARCEGA", "PUEBLO\nINDIGENA O\nAFROMEXICANO": "CH'OL", "LOCALIDAD": "LAGUNA GRANDE ", "CLAVE LOC": 40090963, "TIPO DE\nASENTAMIENTO": "COMUNIDAD INDIGENA", "NOMBRE": "LAGUNA GRANDE", "MONTO\nASIGNADO\n(PESOS)": 891391, "LATITUD": 18.81996, "LONGITUD": -90.291147 }, "geometry": { "type": "Point", "coordinates": [ -90.291147, 18.81996 ] } },
{ "type": "Feature", "properties": { "fid": 174, "NO": 174, "ENTIDAD": "CAMPECHE", "MUNICIPIO": "ESCARCEGA", "PUEBLO\nINDIGENA O\nAFROMEXICANO": "CH'OL", "LOCALIDAD": "LUNA ", "CLAVE LOC": 40090268, "TIPO DE\nASENTAMIENTO": "COMUNIDAD INDIGENA", "NOMBRE": "LUNA", "MONTO\nASIGNADO\n(PESOS)": 799237, "LATITUD": 18.295413, "LONGITUD": -90.899678 }, "geometry": { "type": "Point", "coordinates": [ -90.899678, 18.295413 ] } },
{ "type": "Feature", "properties": { "fid": 175, "NO": 175, "ENTIDAD": "CAMPECHE", "MUNICIPIO": "ESCARCEGA", "PUEBLO\nINDIGENA O\nAFROMEXICANO": "CH'OL", "LOCALIDAD": "MATAMOROS ", "CLAVE LOC": 40090282, "TIPO DE\nASENTAMIENTO": "COMUNIDAD INDIGENA", "NOMBRE": "MATAMOROS", "MONTO\nASIGNADO\n(PESOS)": 1440273, "LATITUD": 18.584636, "LONGITUD": -90.64552 }, "geometry": { "type": "Point", "coordinates": [ -90.64552, 18.584636 ] } },
{ "type": "Feature", "properties": { "fid": 176, "NO": 176, "ENTIDAD": "CAMPECHE", "MUNICIPIO": "ESCARCEGA", "PUEBLO\nINDIGENA O\nAFROMEXICANO": "CH'OL", "LOCALIDAD": "MIGUEL HIDALGO (CARACOL) ", "CLAVE LOC": 40090288, "TIPO DE\nASENTAMIENTO": "COMUNIDAD INDIGENA", "NOMBRE": "MIGUEL HIDALGO (CARACOL)", "MONTO\nASIGNADO\n(PESOS)": 391011, "LATITUD": 18.544379, "LONGITUD": -90.667421 }, "geometry": { "type": "Point", "coordinates": [ -90.667421, 18.544379 ] } },
{ "type": "Feature", "properties": { "fid": 177, "NO": 177, "ENTIDAD": "CAMPECHE", "MUNICIPIO": "ESCARCEGA", "PUEBLO\nINDIGENA O\nAFROMEXICANO": "CH'OL", "LOCALIDAD": "NUEVO PROGRESO DOS", "CLAVE LOC": 40090322, "TIPO DE\nASENTAMIENTO": "COMUNIDAD INDIGENA", "NOMBRE": "NUEVO PROGRESO DOS", "MONTO\nASIGNADO\n(PESOS)": 683640, "LATITUD": 18.621743, "LONGITUD": -90.915722 }, "geometry": { "type": "Point", "coordinates": [ -90.915722, 18.621743 ] } },
{ "type": "Feature", "properties": { "fid": 178, "NO": 178, "ENTIDAD": "CAMPECHE", "MUNICIPIO": "ESCARCEGA", "PUEBLO\nINDIGENA O\nAFROMEXICANO": "CH'OL", "LOCALIDAD": "SILVITUC ", "CLAVE LOC": 40091002, "TIPO DE\nASENTAMIENTO": "COMUNIDAD INDIGENA", "NOMBRE": "SILVITUC", "MONTO\nASIGNADO\n(PESOS)": 880882, "LATITUD": 18.641797, "LONGITUD": -90.272008 }, "geometry": { "type": "Point", "coordinates": [ -90.272008, 18.641797 ] } },
{ "type": "Feature", "properties": { "fid": 179, "NO": 179, "ENTIDAD": "CAMPECHE", "MUNICIPIO": "HECELCHAKAN", "PUEBLO\nINDIGENA O\nAFROMEXICANO": "MAYA", "LOCALIDAD": "BLANCA FLOR", "CLAVE LOC": 40050065, "TIPO DE\nASENTAMIENTO": "COMUNIDAD INDIGENA", "NOMBRE": "BLANCA FLOR", "MONTO\nASIGNADO\n(PESOS)": 406370, "LATITUD": 20.194926, "LONGITUD": -90.037611 }, "geometry": { "type": "Point", "coordinates": [ -90.037611, 20.194926 ] } },
{ "type": "Feature", "properties": { "fid": 180, "NO": 180, "ENTIDAD": "CAMPECHE", "MUNICIPIO": "HECELCHAKAN", "PUEBLO\nINDIGENA O\nAFROMEXICANO": "MAYA", "LOCALIDAD": "CHUNKANAN ", "CLAVE LOC": 40050003, "TIPO DE\nASENTAMIENTO": "COMUNIDAD INDIGENA", "NOMBRE": "CHUNKANÁN", "MONTO\nASIGNADO\n(PESOS)": 973845, "LATITUD": 20.246073, "LONGITUD": -90.242382 }, "geometry": { "type": "Point", "coordinates": [ -90.242382, 20.246073 ] } },
{ "type": "Feature", "properties": { "fid": 181, "NO": 181, "ENTIDAD": "CAMPECHE", "MUNICIPIO": "HECELCHAKAN", "PUEBLO\nINDIGENA O\nAFROMEXICANO": "MAYA", "LOCALIDAD": "CUMPICH ", "CLAVE LOC": 40050002, "TIPO DE\nASENTAMIENTO": "COMUNIDAD INDIGENA", "NOMBRE": "SAN VICENTE CUMPICH", "MONTO\nASIGNADO\n(PESOS)": 1551020, "LATITUD": 20.18705, "LONGITUD": -89.969958 }, "geometry": { "type": "Point", "coordinates": [ -89.969958, 20.18705 ] } },
{ "type": "Feature", "properties": { "fid": 182, "NO": 182, "ENTIDAD": "CAMPECHE", "MUNICIPIO": "HECELCHAKAN", "PUEBLO\nINDIGENA O\nAFROMEXICANO": "MAYA", "LOCALIDAD": "DZITNUP ", "CLAVE LOC": 40050004, "TIPO DE\nASENTAMIENTO": "COMUNIDAD INDIGENA", "NOMBRE": "DZITNUP", "MONTO\nASIGNADO\n(PESOS)": 933426, "LATITUD": 20.186019, "LONGITUD": -90.107408 }, "geometry": { "type": "Point", "coordinates": [ -90.107408, 20.186019 ] } },
{ "type": "Feature", "properties": { "fid": 183, "NO": 183, "ENTIDAD": "CAMPECHE", "MUNICIPIO": "HECELCHAKAN", "PUEBLO\nINDIGENA O\nAFROMEXICANO": "MAYA", "LOCALIDAD": "DZOTCHEN ", "CLAVE LOC": 40050011, "TIPO DE\nASENTAMIENTO": "COMUNIDAD INDIGENA", "NOMBRE": "DZOTCHÉN", "MONTO\nASIGNADO\n(PESOS)": 310983, "LATITUD": 20.205931, "LONGITUD": -89.973494 }, "geometry": { "type": "Point", "coordinates": [ -89.973494, 20.205931 ] } },
{ "type": "Feature", "properties": { "fid": 184, "NO": 184, "ENTIDAD": "CAMPECHE", "MUNICIPIO": "HECELCHAKAN", "PUEBLO\nINDIGENA O\nAFROMEXICANO": "MAYA", "LOCALIDAD": "MONTEBELLO", "CLAVE LOC": 40050028, "TIPO DE\nASENTAMIENTO": "COMUNIDAD INDIGENA", "NOMBRE": "MONTEBELLO", "MONTO\nASIGNADO\n(PESOS)": 331192, "LATITUD": 19.951793, "LONGITUD": -89.960953 }, "geometry": { "type": "Point", "coordinates": [ -89.960953, 19.951793 ] } },
{ "type": "Feature", "properties": { "fid": 185, "NO": 185, "ENTIDAD": "CAMPECHE", "MUNICIPIO": "HECELCHAKAN", "PUEBLO\nINDIGENA O\nAFROMEXICANO": "MAYA", "LOCALIDAD": "NOHALAL ", "CLAVE LOC": 40050005, "TIPO DE\nASENTAMIENTO": "COMUNIDAD INDIGENA", "NOMBRE": "NOHALAL", "MONTO\nASIGNADO\n(PESOS)": 569661, "LATITUD": 20.10565, "LONGITUD": -89.909113 }, "geometry": { "type": "Point", "coordinates": [ -89.909113, 20.10565 ] } },
{ "type": "Feature", "properties": { "fid": 186, "NO": 186, "ENTIDAD": "CAMPECHE", "MUNICIPIO": "HECELCHAKAN", "PUEBLO\nINDIGENA O\nAFROMEXICANO": "MAYA", "LOCALIDAD": "POCBOC", "CLAVE LOC": 40050006, "TIPO DE\nASENTAMIENTO": "COMUNIDAD INDIGENA", "NOMBRE": "POCBOC", "MONTO\nASIGNADO\n(PESOS)": 1559912, "LATITUD": 20.237848, "LONGITUD": -90.102767 }, "geometry": { "type": "Point", "coordinates": [ -90.102767, 20.237848 ] } },
{ "type": "Feature", "properties": { "fid": 187, "NO": 187, "ENTIDAD": "CAMPECHE", "MUNICIPIO": "HECELCHAKAN", "PUEBLO\nINDIGENA O\nAFROMEXICANO": "MAYA", "LOCALIDAD": "SANTA CRUZ ", "CLAVE LOC": 40050008, "TIPO DE\nASENTAMIENTO": "COMUNIDAD INDIGENA", "NOMBRE": "SANTA CRUZ", "MONTO\nASIGNADO\n(PESOS)": 1133093, "LATITUD": 20.203673, "LONGITUD": -90.117073 }, "geometry": { "type": "Point", "coordinates": [ -90.117073, 20.203673 ] } },
{ "type": "Feature", "properties": { "fid": 188, "NO": 188, "ENTIDAD": "CAMPECHE", "MUNICIPIO": "HECELCHAKAN", "PUEBLO\nINDIGENA O\nAFROMEXICANO": "MAYA", "LOCALIDAD": "ZODZIL ", "CLAVE LOC": 40050009, "TIPO DE\nASENTAMIENTO": "COMUNIDAD INDIGENA", "NOMBRE": "ZODZIL", "MONTO\nASIGNADO\n(PESOS)": 488015, "LATITUD": 20.16755, "LONGITUD": -90.22878 }, "geometry": { "type": "Point", "coordinates": [ -90.22878, 20.16755 ] } },
{ "type": "Feature", "properties": { "fid": 189, "NO": 189, "ENTIDAD": "CAMPECHE", "MUNICIPIO": "HOPELCHEN", "PUEBLO\nINDIGENA O\nAFROMEXICANO": "MAYA", "LOCALIDAD": "BECANCHEN ", "CLAVE LOC": 40060002, "TIPO DE\nASENTAMIENTO": "COMUNIDAD INDIGENA", "NOMBRE": "SANTA RITA BECANCHÉN (MOCH COHUO).", "MONTO\nASIGNADO\n(PESOS)": 984354, "LATITUD": 19.65131, "LONGITUD": -89.871367 }, "geometry": { "type": "Point", "coordinates": [ -89.871367, 19.65131 ] } },
{ "type": "Feature", "properties": { "fid": 190, "NO": 190, "ENTIDAD": "CAMPECHE", "MUNICIPIO": "HOPELCHEN", "PUEBLO\nINDIGENA O\nAFROMEXICANO": "MAYA", "LOCALIDAD": "CANCABCHEN ", "CLAVE LOC": 40060026, "TIPO DE\nASENTAMIENTO": "COMUNIDAD INDIGENA", "NOMBRE": "CANCABCHÉN", "MONTO\nASIGNADO\n(PESOS)": 607654, "LATITUD": 19.305589, "LONGITUD": -89.634401 }, "geometry": { "type": "Point", "coordinates": [ -89.634401, 19.305589 ] } },
{ "type": "Feature", "properties": { "fid": 191, "NO": 191, "ENTIDAD": "CAMPECHE", "MUNICIPIO": "HOPELCHEN", "PUEBLO\nINDIGENA O\nAFROMEXICANO": "MAYA", "LOCALIDAD": "CHAN-CHEN", "CLAVE LOC": 40060007, "TIPO DE\nASENTAMIENTO": "COMUNIDAD INDIGENA", "NOMBRE": "CHANCHEN", "MONTO\nASIGNADO\n(PESOS)": 345742, "LATITUD": 19.208563, "LONGITUD": -89.262977 }, "geometry": { "type": "Point", "coordinates": [ -89.262977, 19.208563 ] } },
{ "type": "Feature", "properties": { "fid": 192, "NO": 192, "ENTIDAD": "CAMPECHE", "MUNICIPIO": "HOPELCHEN", "PUEBLO\nINDIGENA O\nAFROMEXICANO": "MAYA", "LOCALIDAD": "CHENCOH ", "CLAVE LOC": 40060008, "TIPO DE\nASENTAMIENTO": "COMUNIDAD INDIGENA", "NOMBRE": "CHENCOH", "MONTO\nASIGNADO\n(PESOS)": 496099, "LATITUD": 19.422877, "LONGITUD": -89.806848 }, "geometry": { "type": "Point", "coordinates": [ -89.806848, 19.422877 ] } },
{ "type": "Feature", "properties": { "fid": 193, "NO": 193, "ENTIDAD": "CAMPECHE", "MUNICIPIO": "HOPELCHEN", "PUEBLO\nINDIGENA O\nAFROMEXICANO": "MAYA", "LOCALIDAD": "CHUNCHINTOK ", "CLAVE LOC": 40060015, "TIPO DE\nASENTAMIENTO": "COMUNIDAD INDIGENA", "NOMBRE": "CHUNCHINTOK", "MONTO\nASIGNADO\n(PESOS)": 954444, "LATITUD": 19.361146, "LONGITUD": -89.581639 }, "geometry": { "type": "Point", "coordinates": [ -89.581639, 19.361146 ] } },
{ "type": "Feature", "properties": { "fid": 194, "NO": 194, "ENTIDAD": "CAMPECHE", "MUNICIPIO": "HOPELCHEN", "PUEBLO\nINDIGENA O\nAFROMEXICANO": "MAYA", "LOCALIDAD": "CHUN-EK", "CLAVE LOC": 40060014, "TIPO DE\nASENTAMIENTO": "COMUNIDAD INDIGENA", "NOMBRE": "CHUN EK", "MONTO\nASIGNADO\n(PESOS)": 339658, "LATITUD": 19.185097, "LONGITUD": -89.191517 }, "geometry": { "type": "Point", "coordinates": [ -89.191517, 19.185097 ] } },
{ "type": "Feature", "properties": { "fid": 195, "NO": 195, "ENTIDAD": "CAMPECHE", "MUNICIPIO": "HOPELCHEN", "PUEBLO\nINDIGENA O\nAFROMEXICANO": "MAYA", "LOCALIDAD": "CHUNYAXNIC ", "CLAVE LOC": 40060017, "TIPO DE\nASENTAMIENTO": "COMUNIDAD INDIGENA", "NOMBRE": "CHUNYAXNIC", "MONTO\nASIGNADO\n(PESOS)": 373227, "LATITUD": 20.077694, "LONGITUD": -89.810141 }, "geometry": { "type": "Point", "coordinates": [ -89.810141, 20.077694 ] } },
{ "type": "Feature", "properties": { "fid": 196, "NO": 196, "ENTIDAD": "CAMPECHE", "MUNICIPIO": "HOPELCHEN", "PUEBLO\nINDIGENA O\nAFROMEXICANO": "MAYA", "LOCALIDAD": "CRUCERO SAN LUIS", "CLAVE LOC": 40060006, "TIPO DE\nASENTAMIENTO": "COMUNIDAD INDIGENA", "NOMBRE": "CRUCERO SAN LUIS", "MONTO\nASIGNADO\n(PESOS)": 627055, "LATITUD": 19.699362, "LONGITUD": -89.99022 }, "geometry": { "type": "Point", "coordinates": [ -89.99022, 19.699362 ] } },
{ "type": "Feature", "properties": { "fid": 197, "NO": 197, "ENTIDAD": "CAMPECHE", "MUNICIPIO": "HOPELCHEN", "PUEBLO\nINDIGENA O\nAFROMEXICANO": "MAYA", "LOCALIDAD": "DZIBALCHEN ", "CLAVE LOC": 40060019, "TIPO DE\nASENTAMIENTO": "COMUNIDAD INDIGENA", "NOMBRE": "DZIBALCHÉN", "MONTO\nASIGNADO\n(PESOS)": 2014215, "LATITUD": 19.459235, "LONGITUD": -89.731594 }, "geometry": { "type": "Point", "coordinates": [ -89.731594, 19.459235 ] } },
{ "type": "Feature", "properties": { "fid": 198, "NO": 198, "ENTIDAD": "CAMPECHE", "MUNICIPIO": "HOPELCHEN", "PUEBLO\nINDIGENA O\nAFROMEXICANO": "MAM", "LOCALIDAD": "EL PARAISO ", "CLAVE LOC": 40060913, "TIPO DE\nASENTAMIENTO": "COMUNIDAD INDIGENA", "NOMBRE": "EL PARAÍSO", "MONTO\nASIGNADO\n(PESOS)": 197811, "LATITUD": 19.490151, "LONGITUD": -89.982377 }, "geometry": { "type": "Point", "coordinates": [ -89.982377, 19.490151 ] } },
{ "type": "Feature", "properties": { "fid": 199, "NO": 199, "ENTIDAD": "CAMPECHE", "MUNICIPIO": "HOPELCHEN", "PUEBLO\nINDIGENA O\nAFROMEXICANO": "NAHUA", "LOCALIDAD": "EL PEDREGAL ", "CLAVE LOC": 40060300, "TIPO DE\nASENTAMIENTO": "COMUNIDAD INDIGENA", "NOMBRE": "EL PEDREGAL", "MONTO\nASIGNADO\n(PESOS)": 137992, "LATITUD": 19.482709, "LONGITUD": -89.518754 }, "geometry": { "type": "Point", "coordinates": [ -89.518754, 19.482709 ] } },
{ "type": "Feature", "properties": { "fid": 200, "NO": 200, "ENTIDAD": "CAMPECHE", "MUNICIPIO": "HOPELCHEN", "PUEBLO\nINDIGENA O\nAFROMEXICANO": "MAYA", "LOCALIDAD": "EL POSTE ", "CLAVE LOC": 40060050, "TIPO DE\nASENTAMIENTO": "COMUNIDAD INDIGENA", "NOMBRE": "EL POSTE", "MONTO\nASIGNADO\n(PESOS)": 309366, "LATITUD": 19.860173, "LONGITUD": -89.828151 }, "geometry": { "type": "Point", "coordinates": [ -89.828151, 19.860173 ] } },
{ "type": "Feature", "properties": { "fid": 201, "NO": 201, "ENTIDAD": "CAMPECHE", "MUNICIPIO": "HOPELCHEN", "PUEBLO\nINDIGENA O\nAFROMEXICANO": "MAYA", "LOCALIDAD": "ICH-EK ", "CLAVE LOC": 40060024, "TIPO DE\nASENTAMIENTO": "COMUNIDAD INDIGENA", "NOMBRE": "ICH-EK.", "MONTO\nASIGNADO\n(PESOS)": 899475, "LATITUD": 19.732386, "LONGITUD": -89.966716 }, "geometry": { "type": "Point", "coordinates": [ -89.966716, 19.732386 ] } },
{ "type": "Feature", "properties": { "fid": 202, "NO": 202, "ENTIDAD": "CAMPECHE", "MUNICIPIO": "HOPELCHEN", "PUEBLO\nINDIGENA O\nAFROMEXICANO": "MAYA", "LOCALIDAD": "KATAB ", "CLAVE LOC": 40060027, "TIPO DE\nASENTAMIENTO": "COMUNIDAD INDIGENA", "NOMBRE": "KATAB", "MONTO\nASIGNADO\n(PESOS)": 452447, "LATITUD": 19.909478, "LONGITUD": -89.84315 }, "geometry": { "type": "Point", "coordinates": [ -89.84315, 19.909478 ] } },
{ "type": "Feature", "properties": { "fid": 203, "NO": 203, "ENTIDAD": "CAMPECHE", "MUNICIPIO": "HOPELCHEN", "PUEBLO\nINDIGENA O\nAFROMEXICANO": "MAYA", "LOCALIDAD": "KOMCHEN ", "CLAVE LOC": 40060029, "TIPO DE\nASENTAMIENTO": "COMUNIDAD INDIGENA", "NOMBRE": "KOMCHÉN", "MONTO\nASIGNADO\n(PESOS)": 606037, "LATITUD": 19.594147, "LONGITUD": -89.851901 }, "geometry": { "type": "Point", "coordinates": [ -89.851901, 19.594147 ] } },
{ "type": "Feature", "properties": { "fid": 204, "NO": 204, "ENTIDAD": "CAMPECHE", "MUNICIPIO": "HOPELCHEN", "PUEBLO\nINDIGENA O\nAFROMEXICANO": "MAYA", "LOCALIDAD": "NUEVO CHAN YAXCHE ", "CLAVE LOC": 40060766, "TIPO DE\nASENTAMIENTO": "COMUNIDAD INDIGENA", "NOMBRE": "NUEVO CHAN YAXCHE", "MONTO\nASIGNADO\n(PESOS)": 89490, "LATITUD": 19.170859, "LONGITUD": -89.32515 }, "geometry": { "type": "Point", "coordinates": [ -89.32515, 19.170859 ] } },
{ "type": "Feature", "properties": { "fid": 205, "NO": 205, "ENTIDAD": "CAMPECHE", "MUNICIPIO": "HOPELCHEN", "PUEBLO\nINDIGENA O\nAFROMEXICANO": "MAYA", "LOCALIDAD": "PACHUITZ ", "CLAVE LOC": 40060032, "TIPO DE\nASENTAMIENTO": "COMUNIDAD INDIGENA", "NOMBRE": "PACHUITZ", "MONTO\nASIGNADO\n(PESOS)": 306941, "LATITUD": 19.147494, "LONGITUD": -89.248617 }, "geometry": { "type": "Point", "coordinates": [ -89.248617, 19.147494 ] } },
{ "type": "Feature", "properties": { "fid": 206, "NO": 206, "ENTIDAD": "CAMPECHE", "MUNICIPIO": "HOPELCHEN", "PUEBLO\nINDIGENA O\nAFROMEXICANO": "MAYA", "LOCALIDAD": "PAKCHEN ", "CLAVE LOC": 40060033, "TIPO DE\nASENTAMIENTO": "COMUNIDAD INDIGENA", "NOMBRE": "PAKCHEN.", "MONTO\nASIGNADO\n(PESOS)": 308557, "LATITUD": 19.52856, "LONGITUD": -89.792433 }, "geometry": { "type": "Point", "coordinates": [ -89.792433, 19.52856 ] } },
{ "type": "Feature", "properties": { "fid": 207, "NO": 207, "ENTIDAD": "CAMPECHE", "MUNICIPIO": "HOPELCHEN", "PUEBLO\nINDIGENA O\nAFROMEXICANO": "MAYA", "LOCALIDAD": "RAMON CORONA", "CLAVE LOC": 40060037, "TIPO DE\nASENTAMIENTO": "COMUNIDAD INDIGENA", "NOMBRE": "RAMÒN CORONA", "MONTO\nASIGNADO\n(PESOS)": 231762, "LATITUD": 19.449955, "LONGITUD": -89.461147 }, "geometry": { "type": "Point", "coordinates": [ -89.461147, 19.449955 ] } },
{ "type": "Feature", "properties": { "fid": 208, "NO": 208, "ENTIDAD": "CAMPECHE", "MUNICIPIO": "HOPELCHEN", "PUEBLO\nINDIGENA O\nAFROMEXICANO": "MAYA", "LOCALIDAD": "SAN ANTONIO YAXCHE ", "CLAVE LOC": 40060041, "TIPO DE\nASENTAMIENTO": "COMUNIDAD INDIGENA", "NOMBRE": "SAN ANTONIO YAXCHE", "MONTO\nASIGNADO\n(PESOS)": 555918, "LATITUD": 20.113308, "LONGITUD": -89.732515 }, "geometry": { "type": "Point", "coordinates": [ -89.732515, 20.113308 ] } },
{ "type": "Feature", "properties": { "fid": 209, "NO": 209, "ENTIDAD": "CAMPECHE", "MUNICIPIO": "HOPELCHEN", "PUEBLO\nINDIGENA O\nAFROMEXICANO": "MAYA", "LOCALIDAD": "SAN BERNARDO HUECHIL ", "CLAVE LOC": 40060737, "TIPO DE\nASENTAMIENTO": "COMUNIDAD INDIGENA", "NOMBRE": "SAN BERNARDO HUECHIL", "MONTO\nASIGNADO\n(PESOS)": 94340, "LATITUD": 19.995043, "LONGITUD": -89.820139 }, "geometry": { "type": "Point", "coordinates": [ -89.820139, 19.995043 ] } },
{ "type": "Feature", "properties": { "fid": 210, "NO": 210, "ENTIDAD": "CAMPECHE", "MUNICIPIO": "HOPELCHEN", "PUEBLO\nINDIGENA O\nAFROMEXICANO": "MAYA", "LOCALIDAD": "SAN JUAN BAUTISTA SAHCABCHEN ", "CLAVE LOC": 40060043, "TIPO DE\nASENTAMIENTO": "COMUNIDAD INDIGENA", "NOMBRE": "SAN JUAN BAUTISTA SAHCABCHEN", "MONTO\nASIGNADO\n(PESOS)": 420921, "LATITUD": 19.874181, "LONGITUD": -89.926667 }, "geometry": { "type": "Point", "coordinates": [ -89.926667, 19.874181 ] } },
{ "type": "Feature", "properties": { "fid": 211, "NO": 211, "ENTIDAD": "CAMPECHE", "MUNICIPIO": "HOPELCHEN", "PUEBLO\nINDIGENA O\nAFROMEXICANO": "MAYA", "LOCALIDAD": "SANTA ROSA X-TAMPAC ", "CLAVE LOC": 40060320, "TIPO DE\nASENTAMIENTO": "COMUNIDAD INDIGENA", "NOMBRE": "SANTA ROSA XTAMPAC", "MONTO\nASIGNADO\n(PESOS)": 84639, "LATITUD": 19.775097, "LONGITUD": -89.596562 }, "geometry": { "type": "Point", "coordinates": [ -89.596562, 19.775097 ] } },
{ "type": "Feature", "properties": { "fid": 212, "NO": 212, "ENTIDAD": "CAMPECHE", "MUNICIPIO": "HOPELCHEN", "PUEBLO\nINDIGENA O\nAFROMEXICANO": "MAYA", "LOCALIDAD": "SUC-TUC ", "CLAVE LOC": 40060046, "TIPO DE\nASENTAMIENTO": "COMUNIDAD INDIGENA", "NOMBRE": "SAN FRANCISCO SUC-TUC", "MONTO\nASIGNADO\n(PESOS)": 1242223, "LATITUD": 19.712402, "LONGITUD": -90.036511 }, "geometry": { "type": "Point", "coordinates": [ -90.036511, 19.712402 ] } },
{ "type": "Feature", "properties": { "fid": 213, "NO": 213, "ENTIDAD": "CAMPECHE", "MUNICIPIO": "HOPELCHEN", "PUEBLO\nINDIGENA O\nAFROMEXICANO": "MAYA", "LOCALIDAD": "UKUM ", "CLAVE LOC": 40060048, "TIPO DE\nASENTAMIENTO": "COMUNIDAD INDIGENA", "NOMBRE": "UKUM.", "MONTO\nASIGNADO\n(PESOS)": 1898618, "LATITUD": 19.242131, "LONGITUD": -89.335257 }, "geometry": { "type": "Point", "coordinates": [ -89.335257, 19.242131 ] } },
{ "type": "Feature", "properties": { "fid": 214, "NO": 214, "ENTIDAD": "CAMPECHE", "MUNICIPIO": "HOPELCHEN", "PUEBLO\nINDIGENA O\nAFROMEXICANO": "MAYA", "LOCALIDAD": "XBILINCOC", "CLAVE LOC": 40060763, "TIPO DE\nASENTAMIENTO": "COMUNIDAD INDIGENA", "NOMBRE": "XBILINCOC", "MONTO\nASIGNADO\n(PESOS)": 149964, "LATITUD": 20.111649, "LONGITUD": -89.854751 }, "geometry": { "type": "Point", "coordinates": [ -89.854751, 20.111649 ] } },
{ "type": "Feature", "properties": { "fid": 215, "NO": 215, "ENTIDAD": "CAMPECHE", "MUNICIPIO": "HOPELCHEN", "PUEBLO\nINDIGENA O\nAFROMEXICANO": "MAYA", "LOCALIDAD": "XCALOT AKAL", "CLAVE LOC": 40060049, "TIPO DE\nASENTAMIENTO": "COMUNIDAD INDIGENA", "NOMBRE": "XCALOT AKAL", "MONTO\nASIGNADO\n(PESOS)": 231762, "LATITUD": 19.938166, "LONGITUD": -89.816818 }, "geometry": { "type": "Point", "coordinates": [ -89.816818, 19.938166 ] } },
{ "type": "Feature", "properties": { "fid": 216, "NO": 216, "ENTIDAD": "CAMPECHE", "MUNICIPIO": "HOPELCHEN", "PUEBLO\nINDIGENA O\nAFROMEXICANO": "MAYA", "LOCALIDAD": "XCANAHALTUN HUECHIL UNIDOS ", "CLAVE LOC": 40060047, "TIPO DE\nASENTAMIENTO": "COMUNIDAD INDIGENA", "NOMBRE": "XCANAHALTUN HUECHIL UNIDOS", "MONTO\nASIGNADO\n(PESOS)": 197003, "LATITUD": 19.995356, "LONGITUD": -89.818863 }, "geometry": { "type": "Point", "coordinates": [ -89.818863, 19.995356 ] } },
{ "type": "Feature", "properties": { "fid": 217, "NO": 217, "ENTIDAD": "CAMPECHE", "MUNICIPIO": "HOPELCHEN", "PUEBLO\nINDIGENA O\nAFROMEXICANO": "MAYA", "LOCALIDAD": "X-CANHA ", "CLAVE LOC": 40060056, "TIPO DE\nASENTAMIENTO": "COMUNIDAD INDIGENA", "NOMBRE": "XCANHA", "MONTO\nASIGNADO\n(PESOS)": 469423, "LATITUD": 19.100578, "LONGITUD": -89.333928 }, "geometry": { "type": "Point", "coordinates": [ -89.333928, 19.100578 ] } },
{ "type": "Feature", "properties": { "fid": 218, "NO": 218, "ENTIDAD": "CAMPECHE", "MUNICIPIO": "HOPELCHEN", "PUEBLO\nINDIGENA O\nAFROMEXICANO": "MAYA", "LOCALIDAD": "XCULOC", "CLAVE LOC": 40060053, "TIPO DE\nASENTAMIENTO": "COMUNIDAD INDIGENA", "NOMBRE": "XCULOC", "MONTO\nASIGNADO\n(PESOS)": 466189, "LATITUD": 20.187478, "LONGITUD": -89.828379 }, "geometry": { "type": "Point", "coordinates": [ -89.828379, 20.187478 ] } },
{ "type": "Feature", "properties": { "fid": 219, "NO": 219, "ENTIDAD": "CAMPECHE", "MUNICIPIO": "HOPELCHEN", "PUEBLO\nINDIGENA O\nAFROMEXICANO": "MAYA", "LOCALIDAD": "XCUPIL", "CLAVE LOC": 40060054, "TIPO DE\nASENTAMIENTO": "COMUNIDAD INDIGENA", "NOMBRE": "XCUPIL CACAB", "MONTO\nASIGNADO\n(PESOS)": 732951, "LATITUD": 19.666497, "LONGITUD": -89.859878 }, "geometry": { "type": "Point", "coordinates": [ -89.859878, 19.666497 ] } },
{ "type": "Feature", "properties": { "fid": 220, "NO": 220, "ENTIDAD": "CAMPECHE", "MUNICIPIO": "HOPELCHEN", "PUEBLO\nINDIGENA O\nAFROMEXICANO": "MAYA", "LOCALIDAD": "XMABEN", "CLAVE LOC": 40060057, "TIPO DE\nASENTAMIENTO": "COMUNIDAD INDIGENA", "NOMBRE": "XMABÉN", "MONTO\nASIGNADO\n(PESOS)": 1188871, "LATITUD": 19.235035, "LONGITUD": -89.314642 }, "geometry": { "type": "Point", "coordinates": [ -89.314642, 19.235035 ] } },
{ "type": "Feature", "properties": { "fid": 221, "NO": 221, "ENTIDAD": "CAMPECHE", "MUNICIPIO": "HOPELCHEN", "PUEBLO\nINDIGENA O\nAFROMEXICANO": "MAYA", "LOCALIDAD": "XMEJIA ", "CLAVE LOC": 40060058, "TIPO DE\nASENTAMIENTO": "COMUNIDAD INDIGENA", "NOMBRE": "XMEJÍA", "MONTO\nASIGNADO\n(PESOS)": 497716, "LATITUD": 19.22965, "LONGITUD": -89.376143 }, "geometry": { "type": "Point", "coordinates": [ -89.376143, 19.22965 ] } },
{ "type": "Feature", "properties": { "fid": 222, "NO": 222, "ENTIDAD": "CAMPECHE", "MUNICIPIO": "HOPELCHEN", "PUEBLO\nINDIGENA O\nAFROMEXICANO": "MAYA", "LOCALIDAD": "YAXCHE AKAL ", "CLAVE LOC": 40060062, "TIPO DE\nASENTAMIENTO": "COMUNIDAD INDIGENA", "NOMBRE": "YAXCHÉ AKAL", "MONTO\nASIGNADO\n(PESOS)": 269308, "LATITUD": 19.818084, "LONGITUD": -89.70423 }, "geometry": { "type": "Point", "coordinates": [ -89.70423, 19.818084 ] } },
{ "type": "Feature", "properties": { "fid": 223, "NO": 223, "ENTIDAD": "CAMPECHE", "MUNICIPIO": "PALIZADA", "PUEBLO\nINDIGENA O\nAFROMEXICANO": "YOKOT'AN\n(CHONTAL DE\nTABASCO)", "LOCALIDAD": "ALAMILLA ", "CLAVE LOC": 40070003, "TIPO DE\nASENTAMIENTO": "COMUNIDAD INDIGENA", "NOMBRE": "ALAMILLA", "MONTO\nASIGNADO\n(PESOS)": 257630, "LATITUD": 18.274964, "LONGITUD": -92.091121 }, "geometry": { "type": "Point", "coordinates": [ -92.091121, 18.274964 ] } },
{ "type": "Feature", "properties": { "fid": 224, "NO": 224, "ENTIDAD": "CAMPECHE", "MUNICIPIO": "PALIZADA", "PUEBLO\nINDIGENA O\nAFROMEXICANO": "MAYA", "LOCALIDAD": "EL CUYO", "CLAVE LOC": 40070032, "TIPO DE\nASENTAMIENTO": "COMUNIDAD INDIGENA", "NOMBRE": "EL CUYO", "MONTO\nASIGNADO\n(PESOS)": 272181, "LATITUD": 18.269018, "LONGITUD": -92.087113 }, "geometry": { "type": "Point", "coordinates": [ -92.087113, 18.269018 ] } },